{"cities":[{"country_id":1,"geoid":524901,"name_en":"Moscow","lat":55.75222,"name_ru":"Москва","id":1,"lon":37.61556},{"country_id":1,"geoid":523859,"name_en":"Myshkin","lat":57.78973,"name_ru":"Мышкин","id":3,"lon":38.45448},{"country_id":1,"geoid":532600,"name_en":"Lyubim","lat":58.3625,"name_ru":"Любим","id":4,"lon":40.68433},{"country_id":1,"geoid":468902,"name_en":"Yaroslavl","lat":57.62987,"name_ru":"Ярославль","id":5,"lon":39.87368},{"country_id":1,"geoid":479532,"name_en":"Uglich","lat":57.5275,"name_ru":"Углич","id":6,"lon":38.33167},{"country_id":1,"geoid":480122,"name_en":"Tutayev","lat":57.88529,"name_ru":"Тутаев","id":7,"lon":39.5406},{"country_id":1,"geoid":500004,"name_en":"Rybinsk","lat":58.0446,"name_ru":"Рыбинск","id":8,"lon":38.84259},{"country_id":1,"geoid":501183,"name_en":"Rostov","lat":57.1914,"name_ru":"Ростов","id":9,"lon":39.41394},{"country_id":1,"geoid":506029,"name_en":"Poshekhon'ye","lat":58.49928,"name_ru":"Пошехонье","id":10,"lon":39.13531},{"country_id":1,"geoid":497242,"name_en":"Semibratovo","lat":57.30461,"name_ru":"Семибратово","id":11,"lon":39.53688},{"country_id":1,"geoid":509850,"name_en":"Petrovsk","lat":57.01039,"name_ru":"Петровск","id":12,"lon":39.26928},{"country_id":1,"geoid":511359,"name_en":"Pereslavl'-Zalesskiy","lat":56.73934,"name_ru":"Переславль-Залесский","id":13,"lon":38.85626},{"country_id":1,"geoid":522799,"name_en":"Nekrasovskoye","lat":57.67663,"name_ru":"Некрасовское","id":14,"lon":40.36567},{"country_id":1,"geoid":545272,"name_en":"Konstantinovskiy","lat":57.83005,"name_ru":"Константиновский","id":15,"lon":39.58989},{"country_id":1,"geoid":567183,"name_en":"Danilov","lat":58.1908,"name_ru":"Данилов","id":16,"lon":40.17171},{"country_id":1,"geoid":561762,"name_en":"Gavrilov-Yam","lat":57.30185,"name_ru":"Гаврилов-Ям","id":17,"lon":39.85331},{"country_id":1,"geoid":572520,"name_en":"Borisoglebskiy","lat":57.2586,"name_ru":"Борисоглебский","id":18,"lon":39.1508},{"country_id":1,"geoid":536818,"name_en":"Latnaya","lat":51.6586,"name_ru":"Латная","id":19,"lon":38.9011},{"country_id":1,"geoid":549266,"name_en":"Khrenovoye","lat":51.12,"name_ru":"Хреновое","id":20,"lon":40.28889},{"country_id":1,"geoid":553099,"name_en":"Kantemirovka","lat":49.70887,"name_ru":"Кантемировка","id":21,"lon":39.85922},{"country_id":1,"geoid":553766,"name_en":"Kamenka","lat":51.3223,"name_ru":"Каменка","id":22,"lon":42.7678},{"country_id":1,"geoid":461705,"name_en":"Krasnolesnyy","lat":51.88072,"name_ru":"Краснолесный","id":23,"lon":39.58772},{"country_id":1,"geoid":554410,"name_en":"Kalach","lat":50.4258,"name_ru":"Калач","id":24,"lon":41.0261},{"country_id":1,"geoid":468044,"name_en":"Yelan'-Koleno","lat":51.1523,"name_ru":"Елань-Колено","id":25,"lon":41.2306},{"country_id":1,"geoid":471909,"name_en":"Vorontsovka","lat":50.6132,"name_ru":"Воронцовка","id":26,"lon":40.3549},{"country_id":1,"geoid":474669,"name_en":"Verkhnyaya Khava","lat":51.84045,"name_ru":"Верхняя Хава","id":27,"lon":39.94134},{"country_id":1,"geoid":474916,"name_en":"Verkhniy Mamon","lat":50.1635,"name_ru":"Верхний Мамон","id":28,"lon":40.3832},{"country_id":1,"geoid":478538,"name_en":"Uryv-Pokrovka","lat":51.1159,"name_ru":"Урыв-Покровка","id":29,"lon":39.16394},{"country_id":1,"geoid":484747,"name_en":"Talovaya","lat":51.11444,"name_ru":"Таловая","id":30,"lon":40.73},{"country_id":1,"geoid":490683,"name_en":"Somovo","lat":51.74098,"name_ru":"Сомово","id":31,"lon":39.36655},{"country_id":1,"geoid":494430,"name_en":"Shilovo","lat":51.54583,"name_ru":"Шилово","id":32,"lon":39.08917},{"country_id":1,"geoid":499528,"name_en":"Sadovoye","lat":51.53111,"name_ru":"Садовое","id":33,"lon":40.50194},{"country_id":1,"geoid":501215,"name_en":"Rossosh'","lat":51.1209,"name_ru":"Россошь","id":34,"lon":38.5116},{"country_id":1,"geoid":501231,"name_en":"Rossosh'","lat":50.19828,"name_ru":"Россошь","id":35,"lon":39.56726},{"country_id":1,"geoid":505421,"name_en":"Pridonskoy","lat":51.68406,"name_ru":"Придонской","id":36,"lon":39.0727},{"country_id":1,"geoid":505806,"name_en":"Povorino","lat":51.1945,"name_ru":"Поворино","id":37,"lon":42.2457},{"country_id":1,"geoid":508362,"name_en":"Podgornoye","lat":51.73504,"name_ru":"Подгорное","id":38,"lon":39.14961},{"country_id":1,"geoid":512053,"name_en":"Pavlovsk","lat":50.45778,"name_ru":"Павловск","id":39,"lon":40.10806},{"country_id":1,"geoid":512861,"name_en":"Panino","lat":51.6467,"name_ru":"Панино","id":40,"lon":40.1346},{"country_id":1,"geoid":514198,"name_en":"Ostrogozhsk","lat":50.8664,"name_ru":"Острогожск","id":41,"lon":39.07561},{"country_id":1,"geoid":521148,"name_en":"Nizhnedevitsk","lat":51.5419,"name_ru":"Нижнедевицк","id":42,"lon":38.3657},{"country_id":1,"geoid":528734,"name_en":"Maslovka","lat":51.55346,"name_ru":"Масловка","id":43,"lon":39.23573},{"country_id":1,"geoid":534838,"name_en":"Liski","lat":50.98405,"name_ru":"Лиски","id":44,"lon":39.51545},{"country_id":1,"geoid":563420,"name_en":"Ertil'","lat":51.84056,"name_ru":"Эртиль","id":45,"lon":40.80556},{"country_id":1,"geoid":472045,"name_en":"Voronezh","lat":51.67204,"name_ru":"Воронеж","id":46,"lon":39.1843},{"country_id":1,"geoid":472271,"name_en":"Volya","lat":51.7651,"name_ru":"Воля","id":47,"lon":39.5404},{"country_id":1,"geoid":497206,"name_en":"Semiluki","lat":51.68525,"name_ru":"Семилуки","id":48,"lon":39.02787},{"country_id":1,"geoid":502895,"name_en":"Ramon'","lat":51.91569,"name_ru":"Рамонь","id":49,"lon":39.33609},{"country_id":1,"geoid":508394,"name_en":"Podgorenskiy","lat":50.40498,"name_ru":"Подгоренский","id":50,"lon":39.64295},{"country_id":1,"geoid":517716,"name_en":"Novovoronezh","lat":51.30719,"name_ru":"Нововоронеж","id":51,"lon":39.21732},{"country_id":1,"geoid":518745,"name_en":"Novokhopersk","lat":51.0969,"name_ru":"Новохопёрск","id":52,"lon":41.6252},{"country_id":1,"geoid":519447,"name_en":"Novaya Usman'","lat":51.64177,"name_ru":"Новая Усмань","id":53,"lon":39.40863},{"country_id":1,"geoid":526083,"name_en":"Mitrofanovka","lat":49.97083,"name_ru":"Митрофановка","id":54,"lon":39.69389},{"country_id":1,"geoid":546316,"name_en":"Kolodeznyy","lat":51.33333,"name_ru":"Колодезный","id":55,"lon":39.18333},{"country_id":1,"geoid":566969,"name_en":"Davydovka","lat":51.15781,"name_ru":"Давыдовка","id":56,"lon":39.42915},{"country_id":1,"geoid":553769,"name_en":"Kamenka","lat":50.71499,"name_ru":"Каменка","id":57,"lon":39.42189},{"country_id":1,"geoid":570563,"name_en":"Buturlinovka","lat":50.82389,"name_ru":"Бутурлиновка","id":58,"lon":40.60917},{"country_id":1,"geoid":558799,"name_en":"Gribanovskiy","lat":51.45792,"name_ru":"Грибановский","id":59,"lon":41.97637},{"country_id":1,"geoid":572525,"name_en":"Borisoglebsk","lat":51.36713,"name_ru":"Борисоглебск","id":60,"lon":42.08494},{"country_id":1,"geoid":581671,"name_en":"Anna","lat":51.4842,"name_ru":"Анна","id":61,"lon":40.4299},{"country_id":1,"geoid":575457,"name_en":"Boguchar","lat":49.93577,"name_ru":"Богучар","id":62,"lon":40.545},{"country_id":1,"geoid":575948,"name_en":"Bobrov","lat":51.09611,"name_ru":"Бобров","id":63,"lon":40.03333},{"country_id":1,"geoid":548478,"name_en":"Kirillov","lat":59.86299,"name_ru":"Кириллов","id":64,"lon":38.38128},{"country_id":1,"geoid":548791,"name_en":"Kichmengskiy Gorodok","lat":59.98164,"name_ru":"Кичменгский Городок","id":65,"lon":45.78543},{"country_id":1,"geoid":550512,"name_en":"Kharovsk","lat":59.96425,"name_ru":"Харовск","id":66,"lon":40.19121},{"country_id":1,"geoid":554535,"name_en":"Kaduy","lat":59.2,"name_ru":"Кадуй","id":67,"lon":37.15},{"country_id":1,"geoid":554554,"name_en":"Kadnikov","lat":59.50218,"name_ru":"Кадников","id":68,"lon":40.33803},{"country_id":1,"geoid":469960,"name_en":"Vytegra","lat":61.00636,"name_ru":"Вытегра","id":69,"lon":36.44811},{"country_id":1,"geoid":577711,"name_en":"Belozersk","lat":60.0288,"name_ru":"Белозёрск","id":70,"lon":37.8084},{"country_id":1,"geoid":471245,"name_en":"Vozhega","lat":60.47246,"name_ru":"Вожега","id":71,"lon":40.22134},{"country_id":1,"geoid":474354,"name_en":"Verkhovazh'ye","lat":60.74717,"name_ru":"Верховажье","id":72,"lon":42.04652},{"country_id":1,"geoid":476062,"name_en":"Velikiy Ustyug","lat":60.76186,"name_ru":"Великий Устюг","id":73,"lon":46.31352},{"country_id":1,"geoid":477795,"name_en":"Ustyuzhna","lat":58.8394,"name_ru":"Устюжна","id":74,"lon":36.4321},{"country_id":1,"geoid":481960,"name_en":"Tot'ma","lat":59.97375,"name_ru":"Тотьма","id":75,"lon":42.76487},{"country_id":1,"geoid":484314,"name_en":"Tarnogskiy Gorodok","lat":60.49972,"name_ru":"Тарногский-Городок","id":76,"lon":43.57611},{"country_id":1,"geoid":491281,"name_en":"Sokol","lat":59.46167,"name_ru":"Сокол","id":77,"lon":40.12056},{"country_id":1,"geoid":495062,"name_en":"Sheksna","lat":59.20998,"name_ru":"Шексна","id":78,"lon":38.51066},{"country_id":1,"geoid":521773,"name_en":"Nikol'sk","lat":59.53531,"name_ru":"Никольск","id":79,"lon":45.45743},{"country_id":1,"geoid":542908,"name_en":"Krasavino","lat":60.96225,"name_ru":"Красавино","id":80,"lon":46.48321},{"country_id":1,"geoid":472459,"name_en":"Vologda","lat":59.2239,"name_ru":"Вологда","id":81,"lon":39.88398},{"country_id":1,"geoid":472878,"name_en":"Vokhtoga","lat":58.80949,"name_ru":"Вохтога","id":82,"lon":41.06245},{"country_id":1,"geoid":486874,"name_en":"Suda","lat":59.15254,"name_ru":"Суда","id":83,"lon":37.5582},{"country_id":1,"geoid":525585,"name_en":"Molochnoye","lat":59.29166,"name_ru":"Молочное","id":84,"lon":39.67868},{"country_id":1,"geoid":569223,"name_en":"Cherepovets","lat":59.13333,"name_ru":"Череповец","id":85,"lon":37.9},{"country_id":1,"geoid":570086,"name_en":"Chagoda","lat":59.164,"name_ru":"Чагода","id":86,"lon":35.3285},{"country_id":1,"geoid":558236,"name_en":"Gryazovets","lat":58.88,"name_ru":"Грязовец","id":87,"lon":40.2525},{"country_id":1,"geoid":580006,"name_en":"Babayevo","lat":59.3936,"name_ru":"Бабаево","id":88,"lon":35.9371},{"country_id":1,"geoid":527012,"name_en":"Mikhaylovka","lat":50.06,"name_ru":"Михайловка","id":89,"lon":43.2379},{"country_id":1,"geoid":539221,"name_en":"Kumylzhenskaya","lat":49.8809,"name_ru":"Кумылженская","id":90,"lon":42.5898},{"country_id":1,"geoid":548740,"name_en":"Kikvidze","lat":50.74161,"name_ru":"Преображенская","id":91,"lon":43.0518},{"country_id":1,"geoid":553287,"name_en":"Kamyshin","lat":50.09833,"name_ru":"Камышин","id":92,"lon":45.41601},{"country_id":1,"geoid":554397,"name_en":"Kalach-na-Donu","lat":48.69099,"name_ru":"Калач-на-Дону","id":93,"lon":43.52638},{"country_id":1,"geoid":556961,"name_en":"Ilovlya","lat":49.30334,"name_ru":"Иловля","id":94,"lon":43.97965},{"country_id":1,"geoid":462984,"name_en":"Zhirnovsk","lat":50.98448,"name_ru":"Жирновск","id":95,"lon":44.77347},{"country_id":1,"geoid":557992,"name_en":"Gumrak","lat":48.78255,"name_ru":"Гумрак","id":96,"lon":44.3824},{"country_id":1,"geoid":468063,"name_en":"Yelan'","lat":50.949,"name_ru":"Елань","id":97,"lon":43.73781},{"country_id":1,"geoid":478544,"name_en":"Uryupinsk","lat":50.8047,"name_ru":"Урюпинск","id":98,"lon":42.0138},{"country_id":1,"geoid":486071,"name_en":"Surovikino","lat":48.60734,"name_ru":"Суровикино","id":99,"lon":42.84621},{"country_id":1,"geoid":489446,"name_en":"Srednyaya Akhtuba","lat":48.70998,"name_ru":"Средняя Ахтуба","id":100,"lon":44.86724},{"country_id":1,"geoid":500678,"name_en":"Rudnya","lat":50.79898,"name_ru":"Рудня","id":101,"lon":44.55856},{"country_id":1,"geoid":513042,"name_en":"Pallasovka","lat":50.05,"name_ru":"Палласовка","id":102,"lon":46.88333},{"country_id":1,"geoid":516875,"name_en":"Novyy Rogachik","lat":48.67685,"name_ru":"Новый Рогачик","id":103,"lon":44.06081},{"country_id":1,"geoid":518488,"name_en":"Novonikolayevskiy","lat":50.9738,"name_ru":"Новониколаевский","id":104,"lon":42.3649},{"country_id":1,"geoid":521874,"name_en":"Nikolayevsk","lat":50.02824,"name_ru":"Николаевск","id":105,"lon":45.45953},{"country_id":1,"geoid":541344,"name_en":"Krasnyy Yar","lat":50.69652,"name_ru":"Красный Яр","id":106,"lon":44.72792},{"country_id":1,"geoid":542213,"name_en":"Krasnoslobodsk","lat":48.70708,"name_ru":"Краснослободск","id":107,"lon":44.57702},{"country_id":1,"geoid":543633,"name_en":"Kotovo","lat":50.32113,"name_ru":"Котово","id":108,"lon":44.80119},{"country_id":1,"geoid":543728,"name_en":"Kotel'nikovo","lat":47.63009,"name_ru":"Котельниково","id":109,"lon":43.14068},{"country_id":1,"geoid":559654,"name_en":"Gorodishche","lat":48.80454,"name_ru":"Городище","id":110,"lon":44.47439},{"country_id":1,"geoid":562389,"name_en":"Frolovo","lat":49.77133,"name_ru":"Фролово","id":111,"lon":43.66222},{"country_id":1,"geoid":472231,"name_en":"Volzhskiy","lat":48.78583,"name_ru":"Волжский","id":112,"lon":44.77973},{"country_id":1,"geoid":472757,"name_en":"Volgograd","lat":48.71939,"name_ru":"Волгоград","id":113,"lon":44.50183},{"country_id":1,"geoid":485643,"name_en":"Svetlyy Yar","lat":48.4748,"name_ru":"Светлый Яр","id":114,"lon":44.78096},{"country_id":1,"geoid":496957,"name_en":"Serafimovich","lat":49.5786,"name_ru":"Серафимович","id":115,"lon":42.736},{"country_id":1,"geoid":509826,"name_en":"Petrov Val","lat":50.14337,"name_ru":"Петров Вал","id":116,"lon":45.20958},{"country_id":1,"geoid":519062,"name_en":"Novoanninskiy","lat":50.5287,"name_ru":"Новоаннинский","id":117,"lon":42.6747},{"country_id":1,"geoid":536156,"name_en":"Leninsk","lat":48.70233,"name_ru":"Ленинск","id":118,"lon":45.19798},{"country_id":1,"geoid":567177,"name_en":"Danilovka","lat":50.35573,"name_ru":"Даниловка","id":119,"lon":44.11681},{"country_id":1,"geoid":547677,"name_en":"Kletskaya","lat":49.31455,"name_ru":"Клетский","id":120,"lon":43.05844},{"country_id":1,"geoid":568527,"name_en":"Chernyshkovskiy","lat":48.42188,"name_ru":"Чернышковский","id":121,"lon":42.23083},{"country_id":1,"geoid":570315,"name_en":"Bykovo","lat":49.76618,"name_ru":"Быково","id":122,"lon":45.38866},{"country_id":1,"geoid":564654,"name_en":"Dubovka","lat":49.05825,"name_ru":"Дубовка","id":123,"lon":44.829},{"country_id":1,"geoid":524489,"name_en":"Mullovka","lat":54.2,"name_ru":"Мулловка","id":124,"lon":49.4},{"country_id":1,"geoid":555984,"name_en":"Isheyevka","lat":54.42789,"name_ru":"Ишеевка","id":125,"lon":48.26675},{"country_id":1,"geoid":556283,"name_en":"Inza","lat":53.85672,"name_ru":"Инза","id":126,"lon":46.35622},{"country_id":1,"geoid":578465,"name_en":"Bazarnyy Syzgan","lat":53.75117,"name_ru":"Базарный Сызган","id":127,"lon":46.75354},{"country_id":1,"geoid":473994,"name_en":"Veshkayma","lat":54.0472,"name_ru":"Вешкайма","id":128,"lon":47.13},{"country_id":1,"geoid":578931,"name_en":"Barysh","lat":53.65533,"name_ru":"Барыш","id":129,"lon":47.11229},{"country_id":1,"geoid":479123,"name_en":"Ulyanovsk","lat":54.32824,"name_ru":"Ульяновск","id":130,"lon":48.38657},{"country_id":1,"geoid":486043,"name_en":"Surskoye","lat":54.4821,"name_ru":"Сурское","id":131,"lon":46.7214},{"country_id":1,"geoid":489135,"name_en":"Staraya Mayna","lat":54.60417,"name_ru":"Старая Майна","id":132,"lon":48.93056},{"country_id":1,"geoid":489164,"name_en":"Staraya Kulatka","lat":52.72778,"name_ru":"Старая Кулатка","id":133,"lon":47.61788},{"country_id":1,"geoid":512133,"name_en":"Pavlovka","lat":53.59569,"name_ru":"Павловка","id":134,"lon":46.76631},{"country_id":1,"geoid":512152,"name_en":"Pavlovka","lat":52.68966,"name_ru":"Павловка","id":135,"lon":47.14046},{"country_id":1,"geoid":517897,"name_en":"Novospasskoye","lat":53.14683,"name_ru":"Новоспасское","id":136,"lon":47.75138},{"country_id":1,"geoid":521966,"name_en":"Nikolayevka","lat":53.1257,"name_ru":"Николаевка","id":137,"lon":47.2041},{"country_id":1,"geoid":528278,"name_en":"Mayna","lat":54.1135,"name_ru":"Майна","id":138,"lon":47.6231},{"country_id":1,"geoid":537598,"name_en":"Kuzovatovo","lat":53.54681,"name_ru":"Кузоватово","id":139,"lon":47.68659},{"country_id":1,"geoid":552133,"name_en":"Karsun","lat":54.19941,"name_ru":"Карсун","id":140,"lon":46.9827},{"country_id":1,"geoid":566199,"name_en":"Dimitrovgrad","lat":54.21386,"name_ru":"Димитровград","id":141,"lon":49.61838},{"country_id":1,"geoid":497094,"name_en":"Sengiley","lat":53.96222,"name_ru":"Сенгилей","id":142,"lon":48.79444},{"country_id":1,"geoid":517766,"name_en":"Novoul'yanovsk","lat":54.14961,"name_ru":"Новоульяновск","id":143,"lon":48.38907},{"country_id":1,"geoid":519611,"name_en":"Novaya Mayna","lat":54.15,"name_ru":"Новая Майна","id":144,"lon":49.75},{"country_id":1,"geoid":569360,"name_en":"Cherdakly","lat":54.3594,"name_ru":"Чердаклы","id":145,"lon":48.84497},{"country_id":1,"geoid":524699,"name_en":"Mozhga","lat":56.44469,"name_ru":"Можга","id":146,"lon":52.22763},{"country_id":1,"geoid":531426,"name_en":"Malaya Purga","lat":56.55666,"name_ru":"Малая Пурга","id":147,"lon":53.00434},{"country_id":1,"geoid":557469,"name_en":"Igra","lat":57.5549,"name_ru":"Игра","id":148,"lon":53.0544},{"country_id":1,"geoid":469017,"name_en":"Yar","lat":58.2458,"name_ru":"Яр","id":149,"lon":52.1054},{"country_id":1,"geoid":471430,"name_en":"Votkinsk","lat":57.04865,"name_ru":"Воткинск","id":150,"lon":53.98717},{"country_id":1,"geoid":579432,"name_en":"Balezino","lat":57.9787,"name_ru":"Балезино","id":151,"lon":53.0138},{"country_id":1,"geoid":476343,"name_en":"Vavozh","lat":56.77513,"name_ru":"Вавож","id":152,"lon":51.93098},{"country_id":1,"geoid":477656,"name_en":"Uva","lat":56.99081,"name_ru":"Ува","id":153,"lon":52.18517},{"country_id":1,"geoid":485064,"name_en":"Syumsi","lat":57.11108,"name_ru":"Сюмси","id":154,"lon":51.61494},{"country_id":1,"geoid":493040,"name_en":"Sigayevo","lat":56.42163,"name_ru":"Сигаево","id":155,"lon":53.77566},{"country_id":1,"geoid":552830,"name_en":"Karakulino","lat":56.012,"name_ru":"Каракулино","id":156,"lon":53.70669},{"country_id":1,"geoid":554840,"name_en":"Izhevsk","lat":56.84976,"name_ru":"Ижевск","id":157,"lon":53.20448},{"country_id":1,"geoid":561347,"name_en":"Glazov","lat":58.1393,"name_ru":"Глазов","id":158,"lon":52.658},{"country_id":1,"geoid":495688,"name_en":"Sharkan","lat":57.29885,"name_ru":"Шаркан","id":159,"lon":53.87122},{"country_id":1,"geoid":497547,"name_en":"Selty","lat":57.3132,"name_ru":"Селты","id":160,"lon":52.1345},{"country_id":1,"geoid":498687,"name_en":"Sarapul","lat":56.47633,"name_ru":"Сарапул","id":161,"lon":53.79782},{"country_id":1,"geoid":566908,"name_en":"Debesy","lat":57.6515,"name_ru":"Дебесы","id":162,"lon":53.8089},{"country_id":1,"geoid":547831,"name_en":"Kizner","lat":56.27489,"name_ru":"Кизнер","id":163,"lon":51.508},{"country_id":1,"geoid":550902,"name_en":"Kez","lat":57.8957,"name_ru":"Кез","id":164,"lon":53.7132},{"country_id":1,"geoid":553835,"name_en":"Kambarka","lat":56.2666,"name_ru":"Камбарка","id":165,"lon":54.2056},{"country_id":1,"geoid":582423,"name_en":"Alnashi","lat":56.18738,"name_ru":"Алнаши","id":166,"lon":52.47919},{"country_id":1,"geoid":531979,"name_en":"Maksatikha","lat":57.79695,"name_ru":"Максатиха","id":167,"lon":35.88254},{"country_id":1,"geoid":452949,"name_en":"Udomlya","lat":57.87944,"name_ru":"Удомля","id":168,"lon":34.9925},{"country_id":1,"geoid":548652,"name_en":"Kimry","lat":56.86667,"name_ru":"Кимры","id":169,"lon":37.35},{"country_id":1,"geoid":461704,"name_en":"Novozavidovskiy","lat":56.55,"name_ru":"Новозавидовский","id":170,"lon":36.43333},{"country_id":1,"geoid":554363,"name_en":"Kalashnikovo","lat":57.28237,"name_ru":"Калашниково","id":171,"lon":35.22617},{"country_id":1,"geoid":462008,"name_en":"Zubtsov","lat":56.17533,"name_ru":"Зубцов","id":172,"lon":34.58935},{"country_id":1,"geoid":576566,"name_en":"Bezhetsk","lat":57.78506,"name_ru":"Бежецк","id":173,"lon":36.69651},{"country_id":1,"geoid":470252,"name_en":"Vyshniy Volochek","lat":57.59125,"name_ru":"Вышний Волочек","id":174,"lon":34.56453},{"country_id":1,"geoid":473943,"name_en":"Ves'yegonsk","lat":58.66398,"name_ru":"Весьегонск","id":175,"lon":37.2604},{"country_id":1,"geoid":480060,"name_en":"Tver","lat":56.85836,"name_ru":"Тверь","id":176,"lon":35.90057},{"country_id":1,"geoid":481985,"name_en":"Torzhok","lat":57.0436,"name_ru":"Торжок","id":177,"lon":34.96221},{"country_id":1,"geoid":482042,"name_en":"Toropets","lat":56.49779,"name_ru":"Торопец","id":178,"lon":31.63528},{"country_id":1,"geoid":488946,"name_en":"Staritsa","lat":56.50752,"name_ru":"Старица","id":179,"lon":34.93544},{"country_id":1,"geoid":489686,"name_en":"Spirovo","lat":57.41905,"name_ru":"Спирово","id":180,"lon":34.97658},{"country_id":1,"geoid":499717,"name_en":"Rzhev","lat":56.26241,"name_ru":"Ржев","id":181,"lon":34.32817},{"country_id":1,"geoid":502265,"name_en":"Redkino","lat":56.64754,"name_ru":"Редкино","id":182,"lon":36.29674},{"country_id":1,"geoid":514259,"name_en":"Ostashkov","lat":57.14667,"name_ru":"Осташков","id":183,"lon":33.10753},{"country_id":1,"geoid":522775,"name_en":"Nelidovo","lat":56.22107,"name_ru":"Нелидово","id":184,"lon":32.77738},{"country_id":1,"geoid":541704,"name_en":"Krasnyy Kholm","lat":58.0607,"name_ru":"Красный Холм","id":185,"lon":37.12032},{"country_id":1,"geoid":542298,"name_en":"Krasnomayskiy","lat":57.61941,"name_ru":"Красномайский","id":186,"lon":34.40987},{"country_id":1,"geoid":551986,"name_en":"Kashin","lat":57.35917,"name_ru":"Кашин","id":187,"lon":37.60806},{"country_id":1,"geoid":553884,"name_en":"Kalyazin","lat":57.24028,"name_ru":"Калязин","id":188,"lon":37.84333},{"country_id":1,"geoid":464159,"name_en":"Zavidovo","lat":56.53333,"name_ru":"Завидово","id":189,"lon":36.53333},{"country_id":1,"geoid":464891,"name_en":"Zapadnaya Dvina","lat":56.25901,"name_ru":"Западная Двина","id":190,"lon":32.07454},{"country_id":1,"geoid":497661,"name_en":"Selizharovo","lat":56.85188,"name_ru":"Селижарово","id":191,"lon":33.44869},{"country_id":1,"geoid":511592,"name_en":"Peno","lat":56.92624,"name_ru":"Пено","id":192,"lon":32.74262},{"country_id":1,"geoid":515687,"name_en":"Olenino","lat":56.20917,"name_ru":"Оленино","id":193,"lon":33.48888},{"country_id":1,"geoid":535261,"name_en":"Likhoslavl'","lat":57.12747,"name_ru":"Лихославль","id":194,"lon":35.46404},{"country_id":1,"geoid":538104,"name_en":"Kuvshinovo","lat":57.02953,"name_ru":"Кувшиново","id":195,"lon":34.17252},{"country_id":1,"geoid":545673,"name_en":"Konakovo","lat":56.7,"name_ru":"Конаково","id":196,"lon":36.76667},{"country_id":1,"geoid":582105,"name_en":"Andreapol'","lat":56.65134,"name_ru":"Андреаполь","id":197,"lon":32.2664},{"country_id":1,"geoid":575349,"name_en":"Bologoye","lat":57.8799,"name_ru":"Бологое","id":198,"lon":34.10681},{"country_id":1,"geoid":831208,"name_en":"Ozernyy","lat":57.9,"name_ru":"Озёрный","id":199,"lon":33.65},{"country_id":1,"geoid":538733,"name_en":"Kurkino","lat":53.42567,"name_ru":"Куркино","id":200,"lon":38.65824},{"country_id":1,"geoid":548506,"name_en":"Kireyevsk","lat":53.93361,"name_ru":"Киреевск","id":201,"lon":37.92792},{"country_id":1,"geoid":548658,"name_en":"Kimovsk","lat":53.97164,"name_ru":"Кимовск","id":202,"lon":38.53186},{"country_id":1,"geoid":468390,"name_en":"Yefremov","lat":53.14806,"name_ru":"Ефремов","id":203,"lon":38.09924},{"country_id":1,"geoid":468671,"name_en":"Yasnogorsk","lat":54.48082,"name_ru":"Ясногорск","id":204,"lon":37.69854},{"country_id":1,"geoid":569116,"name_en":"Chern'","lat":53.45232,"name_ru":"Чернь","id":205,"lon":36.9145},{"country_id":1,"geoid":582750,"name_en":"Aleksin","lat":54.50503,"name_ru":"Алексин","id":206,"lon":37.0674},{"country_id":1,"geoid":475881,"name_en":"Venev","lat":54.35533,"name_ru":"Венёв","id":207,"lon":38.26843},{"country_id":1,"geoid":477494,"name_en":"Uzlovaya","lat":53.98179,"name_ru":"Узловая","id":208,"lon":38.17118},{"country_id":1,"geoid":480562,"name_en":"Tula","lat":54.19609,"name_ru":"Тула","id":209,"lon":37.61822},{"country_id":1,"geoid":481938,"name_en":"Tovarkovskiy","lat":53.68217,"name_ru":"Товарково","id":210,"lon":38.2092},{"country_id":1,"geoid":483575,"name_en":"Teploye","lat":53.62022,"name_ru":"Теплое","id":211,"lon":37.59026},{"country_id":1,"geoid":485888,"name_en":"Suvorov","lat":54.1223,"name_ru":"Суворов","id":212,"lon":36.49657},{"country_id":1,"geoid":509052,"name_en":"Plavsk","lat":53.70944,"name_ru":"Плавск","id":213,"lon":37.29194},{"country_id":1,"geoid":516197,"name_en":"Odoyev","lat":53.93933,"name_ru":"Одоев","id":214,"lon":36.68639},{"country_id":1,"geoid":518557,"name_en":"Novomoskovsk","lat":54.0105,"name_ru":"Новомосковск","id":215,"lon":38.2846},{"country_id":1,"geoid":464993,"name_en":"Zaokskiy","lat":54.73227,"name_ru":"Заокский","id":216,"lon":37.40539},{"country_id":1,"geoid":493184,"name_en":"Shvartsevskiy","lat":54.09174,"name_ru":"Шварцевский","id":217,"lon":37.99053},{"country_id":1,"geoid":495394,"name_en":"Shchekino","lat":54.00513,"name_ru":"Щекино","id":218,"lon":37.52194},{"country_id":1,"geoid":496269,"name_en":"Severo-Zadonsk","lat":54.03481,"name_ru":"Северо-Задонск","id":219,"lon":38.40172},{"country_id":1,"geoid":536111,"name_en":"Leninskiy","lat":54.28768,"name_ru":"Ленинский","id":220,"lon":37.45926},{"country_id":1,"geoid":558497,"name_en":"Gritsovskiy","lat":54.13761,"name_ru":"Грицовский","id":221,"lon":38.16043},{"country_id":1,"geoid":578091,"name_en":"Belev","lat":53.81194,"name_ru":"Белёв","id":222,"lon":36.13194},{"country_id":1,"geoid":564723,"name_en":"Dubna","lat":54.15416,"name_ru":"Дубна","id":223,"lon":36.96173},{"country_id":1,"geoid":565290,"name_en":"Donskoy","lat":53.97106,"name_ru":"Донской","id":224,"lon":38.33627},{"country_id":1,"geoid":572256,"name_en":"Borodinskiy","lat":53.99859,"name_ru":"Бородинский","id":225,"lon":37.81792},{"country_id":1,"geoid":575343,"name_en":"Bolokhovo","lat":54.08378,"name_ru":"Болохово","id":226,"lon":37.82895},{"country_id":1,"geoid":575591,"name_en":"Bogoroditsk","lat":53.77166,"name_ru":"Богородицк","id":227,"lon":38.12408},{"country_id":1,"geoid":584021,"name_en":"Ageyevo","lat":54.15883,"name_ru":"Агеево","id":228,"lon":36.46927},{"country_id":1,"geoid":821801,"name_en":"Dubovka","lat":53.95223,"name_ru":"Дубовка","id":229,"lon":38.06276},{"country_id":1,"geoid":523750,"name_en":"Naberezhnyye Chelny","lat":55.72545,"name_ru":"Набережные Челны","id":230,"lon":52.41122},{"country_id":1,"geoid":524183,"name_en":"Muslyumovo","lat":55.30333,"name_ru":"Муслюмово","id":231,"lon":53.19472},{"country_id":1,"geoid":527529,"name_en":"Menzelinsk","lat":55.72706,"name_ru":"Мензелинск","id":232,"lon":53.10258},{"country_id":1,"geoid":527579,"name_en":"Mendeleyevsk","lat":55.90819,"name_ru":"Менделеевск","id":233,"lon":52.29047},{"country_id":1,"geoid":539689,"name_en":"Kukmor","lat":56.1855,"name_ru":"Кукмор","id":234,"lon":50.8944},{"country_id":1,"geoid":551487,"name_en":"Kazan","lat":55.78874,"name_ru":"Казань","id":235,"lon":49.12214},{"country_id":1,"geoid":552974,"name_en":"Karabash","lat":54.693,"name_ru":"Карабаш","id":236,"lon":52.58359},{"country_id":1,"geoid":468082,"name_en":"Yelabuga","lat":55.76127,"name_ru":"Елабуга","id":237,"lon":52.06493},{"country_id":1,"geoid":470212,"name_en":"Vysokaya Gora","lat":55.91278,"name_ru":"Высокая Гора","id":238,"lon":49.30167},{"country_id":1,"geoid":578467,"name_en":"Bazarnyye Mataki","lat":54.88333,"name_ru":"Базарные Матаки","id":239,"lon":49.93333},{"country_id":1,"geoid":578638,"name_en":"Bavly","lat":54.39304,"name_ru":"Бавлы","id":240,"lon":53.26023},{"country_id":1,"geoid":579384,"name_en":"Baltasi","lat":56.3462,"name_ru":"Балтаси","id":241,"lon":50.2062},{"country_id":1,"geoid":582775,"name_en":"Alekseyevskoye","lat":55.30706,"name_ru":"Алексеевское","id":242,"lon":50.11353},{"country_id":1,"geoid":478565,"name_en":"Urussu","lat":54.59812,"name_ru":"Уруссу","id":243,"lon":53.46313},{"country_id":1,"geoid":483150,"name_en":"Tetyushi","lat":54.93821,"name_ru":"Тетюши","id":244,"lon":48.83656},{"country_id":1,"geoid":611182,"name_en":"Vasil'yevo","lat":55.83595,"name_ru":"Васильево","id":245,"lon":48.6582},{"country_id":1,"geoid":494925,"name_en":"Shemordan","lat":56.1856,"name_ru":"Шемордан","id":246,"lon":50.3972},{"country_id":1,"geoid":499987,"name_en":"Rybnaya Sloboda","lat":55.46129,"name_ru":"Рыбная Слобода","id":247,"lon":50.1409},{"country_id":1,"geoid":514460,"name_en":"Osinovo","lat":55.8809,"name_ru":"Осиново","id":248,"lon":48.881},{"country_id":1,"geoid":516716,"name_en":"Nurlat","lat":54.42766,"name_ru":"Нурлат","id":249,"lon":50.80511},{"country_id":1,"geoid":520318,"name_en":"Nizhnyaya Maktama","lat":54.86356,"name_ru":"Нижняя Мактама","id":250,"lon":52.4281},{"country_id":1,"geoid":520642,"name_en":"Nizhniye Vyazovyye","lat":55.79877,"name_ru":"Нижние Вязовые","id":251,"lon":48.52476},{"country_id":1,"geoid":521118,"name_en":"Nizhnekamsk","lat":55.63657,"name_ru":"Нижнекамск","id":252,"lon":51.82447},{"country_id":1,"geoid":529709,"name_en":"Mamadysh","lat":55.71525,"name_ru":"Мамадыш","id":253,"lon":51.40797},{"country_id":1,"geoid":537158,"name_en":"Laishevo","lat":55.40464,"name_ru":"Лаишево","id":254,"lon":49.55037},{"country_id":1,"geoid":463835,"name_en":"Zelenodolsk","lat":55.84376,"name_ru":"Зеленодольск","id":255,"lon":48.51784},{"country_id":1,"geoid":465543,"name_en":"Zainsk","lat":55.3195,"name_ru":"Заинск","id":256,"lon":52.06942},{"country_id":1,"geoid":563681,"name_en":"Dzhalil'","lat":55.0239,"name_ru":"Джалиль","id":257,"lon":52.7358},{"country_id":1,"geoid":498537,"name_en":"Sarmanovo","lat":55.25529,"name_ru":"Сарманово","id":258,"lon":52.58907},{"country_id":1,"geoid":510342,"name_en":"Pestretsy","lat":55.75313,"name_ru":"Пестрецы","id":259,"lon":49.65454},{"country_id":1,"geoid":536162,"name_en":"Leninogorsk","lat":54.60256,"name_ru":"Лениногорск","id":260,"lon":52.46087},{"country_id":1,"geoid":567990,"name_en":"Chistopol'","lat":55.36311,"name_ru":"Чистополь","id":261,"lon":50.64244},{"country_id":1,"geoid":569318,"name_en":"Cheremshan","lat":54.66667,"name_ru":"Черемшан","id":262,"lon":51.5},{"country_id":1,"geoid":570990,"name_en":"Bolgar","lat":54.95,"name_ru":"Болгар","id":263,"lon":49.06667},{"country_id":1,"geoid":571155,"name_en":"Buinsk","lat":54.97119,"name_ru":"Буинск","id":264,"lon":48.29184},{"country_id":1,"geoid":580850,"name_en":"Arsk","lat":56.09151,"name_ru":"Арск","id":265,"lon":49.87783},{"country_id":1,"geoid":571170,"name_en":"Bugul'ma","lat":54.5378,"name_ru":"Бугульма","id":266,"lon":52.7985},{"country_id":1,"geoid":583548,"name_en":"Aktyubinskiy","lat":54.81372,"name_ru":"Актюбинский","id":267,"lon":52.80559},{"country_id":1,"geoid":583578,"name_en":"Aktanysh","lat":55.72156,"name_ru":"Актаныш","id":268,"lon":54.08293},{"country_id":1,"geoid":583983,"name_en":"Agryz","lat":56.52034,"name_ru":"Агрыз","id":269,"lon":52.99422},{"country_id":1,"geoid":575728,"name_en":"Bogatyye Saby","lat":56.0102,"name_ru":"Богатые Сабы","id":270,"lon":50.4483},{"country_id":1,"geoid":582432,"name_en":"Al'met'yevsk","lat":54.90442,"name_ru":"Альметьевск","id":271,"lon":52.3154},{"country_id":1,"geoid":7760366,"name_en":"Staroye Arakchino","lat":55.8041,"name_ru":"Старое Аракчино","id":272,"lon":48.9709},{"country_id":1,"geoid":524627,"name_en":"Muchkapskiy","lat":51.85133,"name_ru":"Мучкапский","id":273,"lon":42.47175},{"country_id":1,"geoid":527191,"name_en":"Michurinsk","lat":52.8978,"name_ru":"Мичуринск","id":274,"lon":40.4907},{"country_id":1,"geoid":462357,"name_en":"Znamenka","lat":52.4167,"name_ru":"Знаменка","id":275,"lon":41.43108},{"country_id":1,"geoid":556275,"name_en":"Inzhavino","lat":52.31847,"name_ru":"Инжавино","id":276,"lon":42.49369},{"country_id":1,"geoid":477626,"name_en":"Uvarovo","lat":51.98486,"name_ru":"Уварово","id":277,"lon":42.26147},{"country_id":1,"geoid":484646,"name_en":"Tambov","lat":52.73169,"name_ru":"Тамбов","id":278,"lon":41.44326},{"country_id":1,"geoid":488214,"name_en":"Staroyur'yevo","lat":53.31611,"name_ru":"Староюрьево","id":279,"lon":40.70806},{"country_id":1,"geoid":490323,"name_en":"Sosnovka","lat":53.23593,"name_ru":"Сосновка","id":280,"lon":41.36859},{"country_id":1,"geoid":499782,"name_en":"Rzhaksa","lat":52.13384,"name_ru":"Ржакса","id":281,"lon":42.0264},{"country_id":1,"geoid":507479,"name_en":"Pokrovo-Prigorodnoye","lat":52.68405,"name_ru":"Покрово-Пригородное","id":282,"lon":41.41752},{"country_id":1,"geoid":543605,"name_en":"Kotovsk","lat":52.58666,"name_ru":"Котовск","id":283,"lon":41.5021},{"country_id":1,"geoid":463217,"name_en":"Zherdevka","lat":51.84861,"name_ru":"Жердевка","id":284,"lon":41.46056},{"country_id":1,"geoid":464094,"name_en":"Zavoronezhskoye","lat":52.8801,"name_ru":"Заворонежское","id":285,"lon":40.5526},{"country_id":1,"geoid":502793,"name_en":"Rasskazovo","lat":52.65599,"name_ru":"Рассказово","id":286,"lon":41.88461},{"country_id":1,"geoid":510911,"name_en":"Pervomayskiy","lat":53.2485,"name_ru":"Первомайский","id":287,"lon":40.2871},{"country_id":1,"geoid":525138,"name_en":"Morshansk","lat":53.44354,"name_ru":"Моршанск","id":288,"lon":41.81065},{"country_id":1,"geoid":525365,"name_en":"Mordovo","lat":52.0834,"name_ru":"Мордово","id":289,"lon":40.77},{"country_id":1,"geoid":548330,"name_en":"Kirsanov","lat":52.65494,"name_ru":"Кирсанов","id":290,"lon":42.72236},{"country_id":1,"geoid":523715,"name_en":"Nadezhda","lat":44.1,"name_ru":"Надежда","id":291,"lon":44.6},{"country_id":1,"geoid":532706,"name_en":"Lysogorskaya","lat":44.10639,"name_ru":"Лысогорская","id":292,"lon":43.27556},{"country_id":1,"geoid":538558,"name_en":"Kurskaya","lat":44.05,"name_ru":"Курская","id":293,"lon":44.45},{"country_id":1,"geoid":538582,"name_en":"Kursavka","lat":44.4564,"name_ru":"Курсавка","id":294,"lon":42.5093},{"country_id":1,"geoid":556230,"name_en":"Ipatovo","lat":45.71806,"name_ru":"Ипатово","id":295,"lon":42.90361},{"country_id":1,"geoid":556320,"name_en":"Inozemtsevo","lat":44.09264,"name_ru":"Иноземцево","id":296,"lon":43.09113},{"country_id":1,"geoid":558707,"name_en":"Grigoropolisskaya","lat":45.29722,"name_ru":"Григорополисская","id":297,"lon":41.05667},{"country_id":1,"geoid":561626,"name_en":"Georgiyevskaya","lat":44.11139,"name_ru":"Георгиевская","id":298,"lon":43.49222},{"country_id":1,"geoid":561627,"name_en":"Georgiyevsk","lat":44.15194,"name_ru":"Георгиевск","id":299,"lon":43.46972},{"country_id":1,"geoid":576519,"name_en":"Bezopasnoye","lat":45.64833,"name_ru":"Безопасное","id":300,"lon":41.93603},{"country_id":1,"geoid":578974,"name_en":"Barsukovskaya","lat":44.7632,"name_ru":"Барсуковская","id":301,"lon":41.8191},{"country_id":1,"geoid":582993,"name_en":"Aleksandrovskoye","lat":44.71417,"name_ru":"Александровское","id":302,"lon":43.00083},{"country_id":1,"geoid":481181,"name_en":"Trunovskoye","lat":45.48778,"name_ru":"Труновское","id":303,"lon":42.13583},{"country_id":1,"geoid":484162,"name_en":"Tatarka","lat":44.95889,"name_ru":"Татарка","id":304,"lon":41.95171},{"country_id":1,"geoid":485432,"name_en":"Svobody","lat":44.02556,"name_ru":"Свободы","id":305,"lon":43.05028},{"country_id":1,"geoid":485871,"name_en":"Suvorovskaya","lat":44.1901,"name_ru":"Суворовская","id":306,"lon":42.6595},{"country_id":1,"geoid":487846,"name_en":"Stavropol'","lat":45.0428,"name_ru":"Ставрополь","id":307,"lon":41.9734},{"country_id":1,"geoid":490066,"name_en":"Sovetskaya","lat":44.02667,"name_ru":"Советская","id":308,"lon":44.05},{"country_id":1,"geoid":490108,"name_en":"Sotnikovskoye","lat":45.00389,"name_ru":"Сотниковское","id":309,"lon":43.77722},{"country_id":1,"geoid":491085,"name_en":"Soldato-Aleksandrovskoye","lat":44.26528,"name_ru":"Солдато-Александровское","id":310,"lon":43.75611},{"country_id":1,"geoid":499811,"name_en":"Ryzdvyanyy","lat":45.2656,"name_ru":"Рыздвяный","id":311,"lon":41.8389},{"country_id":1,"geoid":502797,"name_en":"Rasshevatskaya","lat":45.5748,"name_ru":"Расшеватская","id":312,"lon":41.03496},{"country_id":1,"geoid":503550,"name_en":"Pyatigorsk","lat":44.04861,"name_ru":"Пятигорск","id":313,"lon":43.05944},{"country_id":1,"geoid":505581,"name_en":"Pravokumskoye","lat":44.76944,"name_ru":"Правокумское","id":314,"lon":44.64722},{"country_id":1,"geoid":505641,"name_en":"Praskoveya","lat":44.74444,"name_ru":"Прасковея","id":315,"lon":44.20306},{"country_id":1,"geoid":507612,"name_en":"Pokoynoye","lat":44.80972,"name_ru":"Покойное","id":316,"lon":44.25167},{"country_id":1,"geoid":511707,"name_en":"Pelagiada","lat":45.20639,"name_ru":"Пелагиада","id":317,"lon":42.02361},{"country_id":1,"geoid":518209,"name_en":"Novoselitskoye","lat":44.75083,"name_ru":"Новоселицкое","id":318,"lon":43.43694},{"country_id":1,"geoid":518383,"name_en":"Novopavlovsk","lat":43.96222,"name_ru":"Новопавловск","id":319,"lon":43.63417},{"country_id":1,"geoid":526480,"name_en":"Mineralnye Vody","lat":44.21028,"name_ru":"Минеральные Воды","id":320,"lon":43.13528},{"country_id":1,"geoid":537238,"name_en":"Ladovskaya Balka","lat":45.62965,"name_ru":"Ладовская Балка","id":321,"lon":41.40231},{"country_id":1,"geoid":542312,"name_en":"Krasnokumskoye","lat":44.17806,"name_ru":"Краснокумское","id":322,"lon":43.50194},{"country_id":1,"geoid":542334,"name_en":"Krasnogvardeyskoye","lat":45.84604,"name_ru":"Красногвардейское","id":323,"lon":41.51885},{"country_id":1,"geoid":554770,"name_en":"Izobil'nyy","lat":45.37092,"name_ru":"Изобильный","id":324,"lon":41.70839},{"country_id":1,"geoid":463340,"name_en":"Zheleznovodsk","lat":44.13944,"name_ru":"Железноводск","id":325,"lon":43.01972},{"country_id":1,"geoid":555206,"name_en":"Ivanovskoye","lat":44.5795,"name_ru":"Ивановское","id":326,"lon":41.8764},{"country_id":1,"geoid":463824,"name_en":"Zelenokumsk","lat":44.40694,"name_ru":"Зеленокумск","id":327,"lon":43.88056},{"country_id":1,"geoid":559320,"name_en":"Goryachevodskiy","lat":44.02361,"name_ru":"Горячеводский","id":328,"lon":43.09222},{"country_id":1,"geoid":464260,"name_en":"Zaterechnyy","lat":44.79306,"name_ru":"Затеречный","id":329,"lon":45.20972},{"country_id":1,"geoid":560852,"name_en":"Gofitskoye","lat":45.07917,"name_ru":"Гофицкое","id":330,"lon":43.04639},{"country_id":1,"geoid":466989,"name_en":"Yessentukskaya","lat":44.0328,"name_ru":"Ессентукская","id":331,"lon":42.8813},{"country_id":1,"geoid":466990,"name_en":"Yessentuki","lat":44.04444,"name_ru":"Ессентуки","id":332,"lon":42.86056},{"country_id":1,"geoid":563556,"name_en":"Edissiya","lat":44.05111,"name_ru":"Эдиссия","id":333,"lon":44.54083},{"country_id":1,"geoid":472961,"name_en":"Yutsa","lat":43.95639,"name_ru":"Юца","id":334,"lon":43.01278},{"country_id":1,"geoid":473522,"name_en":"Vinsady","lat":44.08083,"name_ru":"Винсады","id":335,"lon":42.96528},{"country_id":1,"geoid":485698,"name_en":"Svetlograd","lat":45.33528,"name_ru":"Светлоград","id":336,"lon":42.85472},{"country_id":1,"geoid":493702,"name_en":"Mikhaylovsk","lat":45.12833,"name_ru":"Михайловск","id":337,"lon":42.02556},{"country_id":1,"geoid":508390,"name_en":"Podgornaya","lat":44.20306,"name_ru":"Подгорная","id":338,"lon":43.42972},{"country_id":1,"geoid":517303,"name_en":"Novozavedennoye","lat":44.26278,"name_ru":"Новозаведенное","id":339,"lon":43.63806},{"country_id":1,"geoid":517813,"name_en":"Novotroitskaya","lat":45.32667,"name_ru":"Новотроицкая","id":340,"lon":41.52528},{"country_id":1,"geoid":519106,"name_en":"Novoaleksandrovsk","lat":45.4948,"name_ru":"Новоалександровск","id":341,"lon":41.22075},{"country_id":1,"geoid":522301,"name_en":"Nezlobnaya","lat":44.11806,"name_ru":"Незлобная","id":342,"lon":43.40278},{"country_id":1,"geoid":522377,"name_en":"Nevinnomyssk","lat":44.6333,"name_ru":"Невинномысск","id":343,"lon":41.9444},{"country_id":1,"geoid":524907,"name_en":"Moskovskoye","lat":45.2842,"name_ru":"Московское","id":344,"lon":41.9103},{"country_id":1,"geoid":535438,"name_en":"Levokumskoye","lat":44.82194,"name_ru":"Левокумское","id":345,"lon":44.66056},{"country_id":1,"geoid":535440,"name_en":"Levokumka","lat":44.23167,"name_ru":"Левокумка","id":346,"lon":43.15},{"country_id":1,"geoid":535886,"name_en":"Lermontov","lat":44.10667,"name_ru":"Лермонтов","id":347,"lon":42.97333},{"country_id":1,"geoid":545267,"name_en":"Konstantinovskoye","lat":45.29917,"name_ru":"Константиновское","id":348,"lon":42.63667},{"country_id":1,"geoid":545276,"name_en":"Konstantinovskaya","lat":44.04556,"name_ru":"Константиновская","id":349,"lon":43.15833},{"country_id":1,"geoid":548114,"name_en":"Kislovodsk","lat":43.91333,"name_ru":"Кисловодск","id":350,"lon":42.72083},{"country_id":1,"geoid":568790,"name_en":"Chernolesskoye","lat":44.71556,"name_ru":"Чернолесское","id":351,"lon":43.71333},{"country_id":1,"geoid":571306,"name_en":"Budennovsk","lat":44.78389,"name_ru":"Буденновск","id":352,"lon":44.16583},{"country_id":1,"geoid":565289,"name_en":"Donskoye","lat":45.45518,"name_ru":"Донское","id":353,"lon":41.97411},{"country_id":1,"geoid":580716,"name_en":"Arzgir","lat":45.37278,"name_ru":"Арзгир","id":354,"lon":44.22056},{"country_id":1,"geoid":566155,"name_en":"Divnoye","lat":45.90889,"name_ru":"Дивное","id":355,"lon":43.35472},{"country_id":1,"geoid":581788,"name_en":"Andzhiyevskiy","lat":44.23889,"name_ru":"Анджиевский","id":356,"lon":43.08556},{"country_id":1,"geoid":576147,"name_en":"Blagodatnoye","lat":45.39972,"name_ru":"Благодатное","id":357,"lon":42.58667},{"country_id":1,"geoid":576172,"name_en":"Blagodarnyy","lat":45.09778,"name_ru":"Благодарный","id":358,"lon":43.43639},{"country_id":1,"geoid":584310,"name_en":"Achikulak","lat":44.55167,"name_ru":"Ачикулак","id":359,"lon":44.83778},{"country_id":1,"geoid":583368,"name_en":"Aleksandriyskaya","lat":44.22722,"name_ru":"Александрийская","id":360,"lon":43.34528},{"country_id":1,"geoid":841006,"name_en":"Kochubeyevskoye","lat":44.64417,"name_ru":"Кочубеевское","id":361,"lon":41.84528},{"country_id":1,"geoid":797411,"name_en":"Stepnoye","lat":44.27083,"name_ru":"","id":362,"lon":44.585},{"country_id":1,"geoid":797781,"name_en":"Neftekumsk","lat":44.75583,"name_ru":"Нефтекумск","id":363,"lon":44.9925},{"country_id":1,"geoid":805755,"name_en":"Yasnaya Polyana","lat":44.0225,"name_ru":"Ясная Поляна","id":364,"lon":42.7539},{"country_id":1,"geoid":467753,"name_en":"Yel'nya","lat":54.57864,"name_ru":"Ельня","id":365,"lon":33.18373},{"country_id":1,"geoid":468866,"name_en":"Yartsevo","lat":55.06667,"name_ru":"Ярцево","id":366,"lon":32.69639},{"country_id":1,"geoid":562237,"name_en":"Gagarin","lat":55.55291,"name_ru":"Гагарин","id":367,"lon":34.99537},{"country_id":1,"geoid":470676,"name_en":"Vyaz'ma","lat":55.21039,"name_ru":"Вязьма","id":368,"lon":34.29508},{"country_id":1,"geoid":475614,"name_en":"Verkhnedneprovskiy","lat":54.98131,"name_ru":"Верхнеднепровский","id":369,"lon":33.34573},{"country_id":1,"geoid":475955,"name_en":"Velizh","lat":55.60564,"name_ru":"Велиж","id":370,"lon":31.19673},{"country_id":1,"geoid":491687,"name_en":"Smolensk","lat":54.7818,"name_ru":"Смоленск","id":371,"lon":32.0401},{"country_id":1,"geoid":499452,"name_en":"Safonovo","lat":55.15,"name_ru":"Сафоново","id":372,"lon":33.21667},{"country_id":1,"geoid":500667,"name_en":"Rudnya","lat":54.94698,"name_ru":"Рудня","id":373,"lon":31.0934},{"country_id":1,"geoid":501283,"name_en":"Roslavl'","lat":53.95278,"name_ru":"Рославль","id":374,"lon":32.86389},{"country_id":1,"geoid":513426,"name_en":"Ozernyy","lat":55.5802,"name_ru":"Озёрный","id":375,"lon":32.4127},{"country_id":1,"geoid":566751,"name_en":"Demidov","lat":55.27063,"name_ru":"Демидов","id":376,"lon":31.51497},{"country_id":1,"geoid":485280,"name_en":"Sychevka","lat":55.82515,"name_ru":"Сычевка","id":377,"lon":34.27361},{"country_id":1,"geoid":508606,"name_en":"Pochinok","lat":54.40685,"name_ru":"Починок","id":378,"lon":32.44067},{"country_id":1,"geoid":565202,"name_en":"Dorogobuzh","lat":54.915,"name_ru":"Дорогобуж","id":379,"lon":33.29722},{"country_id":1,"geoid":566384,"name_en":"Desnogorsk","lat":54.15077,"name_ru":"Десногорск","id":380,"lon":33.28151},{"country_id":1,"geoid":532664,"name_en":"Lysyye Gory","lat":51.55063,"name_ru":"Лысые Горы","id":381,"lon":44.84144},{"country_id":1,"geoid":548982,"name_en":"Khvalynsk","lat":52.4906,"name_ru":"Хвалынск","id":382,"lon":48.1058},{"country_id":1,"geoid":554199,"name_en":"Kalininsk","lat":51.5,"name_ru":"Калининск","id":383,"lon":44.4758},{"country_id":1,"geoid":468180,"name_en":"Yekaterinovka","lat":52.05083,"name_ru":"Екатериновка","id":384,"lon":44.34515},{"country_id":1,"geoid":578466,"name_en":"Bazarnyy Karabulak","lat":52.26833,"name_ru":"Базарный Карабулак","id":385,"lon":46.41444},{"country_id":1,"geoid":579460,"name_en":"Balashov","lat":51.5502,"name_ru":"Балашов","id":386,"lon":43.1667},{"country_id":1,"geoid":480267,"name_en":"Turki","lat":51.98703,"name_ru":"Турки","id":387,"lon":43.2731},{"country_id":1,"geoid":484034,"name_en":"Tatishchevo","lat":51.67028,"name_ru":"Татищево","id":388,"lon":45.59528},{"country_id":1,"geoid":487543,"name_en":"Stepnoye","lat":51.37972,"name_ru":"Степное","id":389,"lon":46.84917},{"country_id":1,"geoid":491155,"name_en":"Sokolovyy","lat":51.56857,"name_ru":"Соколовый","id":390,"lon":45.83312},{"country_id":1,"geoid":494519,"name_en":"Shikhany","lat":52.11776,"name_ru":"Шиханы","id":391,"lon":47.1986},{"country_id":1,"geoid":500886,"name_en":"Rtishchevo","lat":52.26041,"name_ru":"Ртищево","id":392,"lon":43.78745},{"country_id":1,"geoid":501091,"name_en":"Rovnoye","lat":50.7765,"name_ru":"Ровное","id":393,"lon":46.05085},{"country_id":1,"geoid":501468,"name_en":"Romanovka","lat":51.74427,"name_ru":"Романовка","id":394,"lon":42.7527},{"country_id":1,"geoid":504250,"name_en":"Pugachev","lat":52.01333,"name_ru":"Пугачев","id":395,"lon":48.8025},{"country_id":1,"geoid":505057,"name_en":"Privolzhskiy","lat":51.40944,"name_ru":"Приволжский","id":396,"lon":46.04833},{"country_id":1,"geoid":513329,"name_en":"Staryye Ozinki","lat":51.1786,"name_ru":"Озинки","id":397,"lon":49.6769},{"country_id":1,"geoid":517172,"name_en":"Novyye Burasy","lat":52.13236,"name_ru":"Новые Бурасы","id":398,"lon":46.07144},{"country_id":1,"geoid":517739,"name_en":"Novouzensk","lat":50.45917,"name_ru":"Новоузенск","id":399,"lon":48.14306},{"country_id":1,"geoid":529073,"name_en":"Marks","lat":51.71111,"name_ru":"Маркс","id":400,"lon":46.74861},{"country_id":1,"geoid":541647,"name_en":"Krasnyy Kut","lat":50.95,"name_ru":"Красный Кут","id":401,"lon":46.96667},{"country_id":1,"geoid":542464,"name_en":"Krasnoarmeysk","lat":51.02389,"name_ru":"Красноармейск","id":402,"lon":45.69694},{"country_id":1,"geoid":559731,"name_en":"Gornyy","lat":51.7578,"name_ru":"Горный","id":403,"lon":48.5413},{"country_id":1,"geoid":467120,"name_en":"Yershov","lat":51.3513,"name_ru":"Ершов","id":404,"lon":48.2766},{"country_id":1,"geoid":563464,"name_en":"Engel's","lat":51.48389,"name_ru":"Энгельс","id":405,"lon":46.10528},{"country_id":1,"geoid":472278,"name_en":"Vol'sk","lat":52.04541,"name_ru":"Вольск","id":406,"lon":47.37993},{"country_id":1,"geoid":566456,"name_en":"Dergachi","lat":51.2328,"name_ru":"Дергачи","id":407,"lon":48.7659},{"country_id":1,"geoid":497019,"name_en":"Sennoy","lat":52.1509,"name_ru":"Сенной","id":408,"lon":46.96309},{"country_id":1,"geoid":498677,"name_en":"Saratov","lat":51.54056,"name_ru":"Саратов","id":409,"lon":46.00861},{"country_id":1,"geoid":498956,"name_en":"Samoylovka","lat":51.184,"name_ru":"Самойловка","id":410,"lon":43.7081},{"country_id":1,"geoid":509269,"name_en":"Piterka","lat":50.6803,"name_ru":"Питерка","id":411,"lon":47.44539},{"country_id":1,"geoid":509987,"name_en":"Petrovsk","lat":52.30639,"name_ru":"Петровск","id":412,"lon":45.39167},{"country_id":1,"geoid":511416,"name_en":"Perelyub","lat":51.86292,"name_ru":"Перелюб","id":413,"lon":50.35412},{"country_id":1,"geoid":525719,"name_en":"Mokrous","lat":51.2373,"name_ru":"Мокроус","id":414,"lon":47.5137},{"country_id":1,"geoid":555112,"name_en":"Ivanteyevka","lat":52.2667,"name_ru":"Ивантеевка","id":415,"lon":49.1055},{"country_id":1,"geoid":564241,"name_en":"Dukhovnitskoye","lat":52.4828,"name_ru":"Духовницкое","id":416,"lon":48.2137},{"country_id":1,"geoid":580420,"name_en":"Atkarsk","lat":51.87185,"name_ru":"Аткарск","id":417,"lon":45.00775},{"country_id":1,"geoid":581080,"name_en":"Arkadak","lat":51.93261,"name_ru":"Аркадак","id":418,"lon":43.49779},{"country_id":1,"geoid":579492,"name_en":"Balakovo","lat":52.02782,"name_ru":"Балаково","id":419,"lon":47.8007},{"country_id":1,"geoid":583345,"name_en":"Aleksandrov Gay","lat":50.14704,"name_ru":"Александров Гай","id":420,"lon":48.57037},{"country_id":1,"geoid":831137,"name_en":"Svetlyy","lat":51.6737,"name_ru":"Светлый","id":421,"lon":45.63054},{"country_id":1,"geoid":538508,"name_en":"Kurumoch","lat":53.48963,"name_ru":"Курумоч","id":422,"lon":50.03748},{"country_id":1,"geoid":548622,"name_en":"Kinel'-Cherkassy","lat":53.4706,"name_ru":"Кинель-Черкассы","id":423,"lon":51.47431},{"country_id":1,"geoid":548625,"name_en":"Kinel'","lat":53.22571,"name_ru":"Кинель","id":424,"lon":50.62907},{"country_id":1,"geoid":463082,"name_en":"Zhigulevsk","lat":53.39972,"name_ru":"Жигулевск","id":425,"lon":49.49528},{"country_id":1,"geoid":576590,"name_en":"Bezenchuk","lat":52.982,"name_ru":"Безенчук","id":426,"lon":49.4333},{"country_id":1,"geoid":482283,"name_en":"Tol'yatti","lat":53.5303,"name_ru":"Тольятти","id":427,"lon":49.3461},{"country_id":1,"geoid":484972,"name_en":"Syzran'","lat":53.1585,"name_ru":"Сызрань","id":428,"lon":48.4681},{"country_id":1,"geoid":494531,"name_en":"Shigony","lat":53.3875,"name_ru":"Шигоны","id":429,"lon":48.6777},{"country_id":1,"geoid":494877,"name_en":"Shentala","lat":54.45,"name_ru":"Шентала","id":430,"lon":51.48333},{"country_id":1,"geoid":499099,"name_en":"Samara","lat":53.20007,"name_ru":"Самара","id":431,"lon":50.15},{"country_id":1,"geoid":501027,"name_en":"Rozhdestveno","lat":53.23745,"name_ru":"Рождествено","id":432,"lon":50.05971},{"country_id":1,"geoid":507624,"name_en":"Pokhvistnevo","lat":53.65237,"name_ru":"Похвистнево","id":433,"lon":52.12738},{"country_id":1,"geoid":513883,"name_en":"Otradnyy","lat":53.37596,"name_ru":"Отрадный","id":434,"lon":51.3452},{"country_id":1,"geoid":516342,"name_en":"Obsharovka","lat":53.125,"name_ru":"Обшаровка","id":435,"lon":48.85306},{"country_id":1,"geoid":517992,"name_en":"Novosemeykino","lat":53.37056,"name_ru":"Новосемейкино","id":436,"lon":50.35428},{"country_id":1,"geoid":518659,"name_en":"Novokuybyshevsk","lat":53.0959,"name_ru":"Новокуйбышевск","id":437,"lon":49.9462},{"country_id":1,"geoid":522945,"name_en":"Neftegorsk","lat":52.802,"name_ru":"Нефтегорск","id":438,"lon":51.166},{"country_id":1,"geoid":541337,"name_en":"Krasnyy Yar","lat":53.49988,"name_ru":"Красный Яр","id":439,"lon":50.39312},{"country_id":1,"geoid":472229,"name_en":"Volzhskiy","lat":53.43058,"name_ru":"Волжский","id":440,"lon":50.119},{"country_id":1,"geoid":486626,"name_en":"Sukhodol","lat":53.90063,"name_ru":"Суходол","id":441,"lon":51.2117},{"country_id":1,"geoid":491576,"name_en":"Smyshlyayevka","lat":53.23913,"name_ru":"Смышляевка","id":442,"lon":50.39072},{"country_id":1,"geoid":510347,"name_en":"Pestravka","lat":52.3982,"name_ru":"Пестравка","id":443,"lon":49.961},{"country_id":1,"geoid":526357,"name_en":"Mirnyy","lat":53.50642,"name_ru":"Мирный","id":444,"lon":50.27658},{"country_id":1,"geoid":540740,"name_en":"Krotovka","lat":53.2858,"name_ru":"Кротовка","id":445,"lon":51.1686},{"country_id":1,"geoid":544203,"name_en":"Koshki","lat":54.20914,"name_ru":"Кошки","id":446,"lon":50.46767},{"country_id":1,"geoid":547383,"name_en":"Klyavlino","lat":54.26491,"name_ru":"Клявлино","id":447,"lon":52.02674},{"country_id":1,"geoid":569497,"name_en":"Chelno-Vershiny","lat":54.4148,"name_ru":"Челно-Вершины","id":448,"lon":51.08594},{"country_id":1,"geoid":569955,"name_en":"Chapayevsk","lat":52.9771,"name_ru":"Чапаевск","id":449,"lon":49.7086},{"country_id":1,"geoid":571987,"name_en":"Borskoye","lat":53.03333,"name_ru":"Борское","id":450,"lon":51.71667},{"country_id":1,"geoid":577384,"name_en":"Bereza","lat":53.51833,"name_ru":"Береза","id":451,"lon":50.13967},{"country_id":1,"geoid":575756,"name_en":"Bogatoye","lat":53.0601,"name_ru":"Богатое","id":452,"lon":51.3325},{"country_id":1,"geoid":867005,"name_en":"Petra-Dubrava","lat":53.29613,"name_ru":"Петра-Дубрава","id":453,"lon":50.36554},{"country_id":1,"geoid":824366,"name_en":"Krasnoarmeyskoye","lat":52.71942,"name_ru":"Красноармейское","id":454,"lon":50.03294},{"country_id":1,"geoid":867006,"name_en":"Povolzhskiy","lat":53.5854,"name_ru":"Поволжский","id":455,"lon":49.7629},{"country_id":1,"geoid":7117224,"name_en":"Pribrezhnyy","lat":53.48662,"name_ru":"Прибрежный","id":456,"lon":49.85836},{"country_id":1,"geoid":527034,"name_en":"Mikhaylov","lat":54.2298,"name_ru":"Михайлов","id":457,"lon":39.0269},{"country_id":1,"geoid":461699,"name_en":"Sasovo","lat":54.35369,"name_ru":"Сасово","id":458,"lon":41.91986},{"country_id":1,"geoid":554549,"name_en":"Kadom","lat":54.55917,"name_ru":"Кадом","id":459,"lon":42.4675},{"country_id":1,"geoid":479426,"name_en":"Ukholovo","lat":53.7929,"name_ru":"Ухолово","id":460,"lon":40.4892},{"country_id":1,"geoid":480484,"name_en":"Tuma","lat":55.14798,"name_ru":"Тума","id":461,"lon":40.55374},{"country_id":1,"geoid":488206,"name_en":"Starozhilovo","lat":54.2254,"name_ru":"Старожилово","id":462,"lon":39.916},{"country_id":1,"geoid":489741,"name_en":"Spassk-Ryazanskiy","lat":54.404,"name_ru":"Спасск-Рязанский","id":463,"lon":40.3762},{"country_id":1,"geoid":489862,"name_en":"Spas-Klepiki","lat":55.13472,"name_ru":"Спас-Клепики","id":464,"lon":40.17673},{"country_id":1,"geoid":492376,"name_en":"Skopin","lat":53.82486,"name_ru":"Скопин","id":465,"lon":39.55053},{"country_id":1,"geoid":494427,"name_en":"Shilovo","lat":54.3204,"name_ru":"Шилово","id":466,"lon":40.874},{"country_id":1,"geoid":498711,"name_en":"Sarai","lat":53.74577,"name_ru":"Сараи","id":467,"lon":41.02126},{"country_id":1,"geoid":499975,"name_en":"Rybnoye","lat":54.72774,"name_ru":"Рыбное","id":468,"lon":39.51731},{"country_id":1,"geoid":500047,"name_en":"Ryazhsk","lat":53.7038,"name_ru":"Ряжск","id":469,"lon":40.1109},{"country_id":1,"geoid":500096,"name_en":"Ryazan'","lat":54.6269,"name_ru":"Рязань","id":470,"lon":39.6916},{"country_id":1,"geoid":506782,"name_en":"Polyany","lat":54.71801,"name_ru":"Поляны","id":471,"lon":39.82932},{"country_id":1,"geoid":515882,"name_en":"Oktyabr'skiy","lat":54.22675,"name_ru":"Октябрьский","id":472,"lon":38.89402},{"country_id":1,"geoid":551891,"name_en":"Kasimov","lat":54.94111,"name_ru":"Касимов","id":473,"lon":41.39528},{"country_id":1,"geoid":495532,"name_en":"Shatsk","lat":54.02576,"name_ru":"Шацк","id":474,"lon":41.71191},{"country_id":1,"geoid":518602,"name_en":"Novomichurinsk","lat":54.0384,"name_ru":"Новомичуринск","id":475,"lon":39.7479},{"country_id":1,"geoid":535744,"name_en":"Lesnoy","lat":54.2125,"name_ru":"Лесной","id":476,"lon":40.4713},{"country_id":1,"geoid":545001,"name_en":"Korablino","lat":53.91639,"name_ru":"Кораблино","id":477,"lon":40.01333},{"country_id":1,"geoid":526558,"name_en":"Millerovo","lat":48.92265,"name_ru":"Миллерово","id":478,"lon":40.39673},{"country_id":1,"geoid":539537,"name_en":"Kuleshovka","lat":47.07802,"name_ru":"Кулешовка","id":479,"lon":39.55794},{"country_id":1,"geoid":553427,"name_en":"Kamenolomni","lat":47.66853,"name_ru":"Каменоломни","id":480,"lon":40.2051},{"country_id":1,"geoid":461910,"name_en":"Zverevo","lat":48.02108,"name_ru":"Зверево","id":481,"lon":40.12282},{"country_id":1,"geoid":554482,"name_en":"Kagal'nitskaya","lat":46.88056,"name_ru":"Кагальницкая","id":482,"lon":40.14657},{"country_id":1,"geoid":462522,"name_en":"Zimovniki","lat":47.1474,"name_ru":"Зимовники","id":483,"lon":42.4721},{"country_id":1,"geoid":462988,"name_en":"Zhirnov","lat":48.17089,"name_ru":"Жирнов","id":484,"lon":41.12608},{"country_id":1,"geoid":557984,"name_en":"Gundorovskiy","lat":46.78047,"name_ru":"Гундоровский","id":485,"lon":41.8968},{"country_id":1,"geoid":468307,"name_en":"Yegorlykskaya","lat":46.56564,"name_ru":"Егорлыкская","id":486,"lon":40.65621},{"country_id":1,"geoid":558082,"name_en":"Gukovo","lat":48.06212,"name_ru":"Гуково","id":487,"lon":39.9355},{"country_id":1,"geoid":578155,"name_en":"Belaya Kalitva","lat":48.18585,"name_ru":"Белая Калитва","id":488,"lon":40.77424},{"country_id":1,"geoid":578740,"name_en":"Bataysk","lat":47.13975,"name_ru":"Батайск","id":489,"lon":39.75181},{"country_id":1,"geoid":473998,"name_en":"Veshenskaya","lat":49.63033,"name_ru":"Вешенская","id":490,"lon":41.7334},{"country_id":1,"geoid":474059,"name_en":"Veselyy","lat":47.09338,"name_ru":"Веселый","id":491,"lon":40.7422},{"country_id":1,"geoid":580054,"name_en":"Azov","lat":47.10779,"name_ru":"Азов","id":492,"lon":39.41648},{"country_id":1,"geoid":478132,"name_en":"Ust'-Donetskiy","lat":47.64189,"name_ru":"Усть-Донецкий","id":493,"lon":40.87182},{"country_id":1,"geoid":480876,"name_en":"Tsimlyansk","lat":47.64611,"name_ru":"Цимлянск","id":494,"lon":42.10194},{"country_id":1,"geoid":481036,"name_en":"Tselina","lat":46.53381,"name_ru":"Целина","id":495,"lon":41.03284},{"country_id":1,"geoid":484396,"name_en":"Tarasovskiy","lat":48.72727,"name_ru":"Тарасовский","id":496,"lon":40.36267},{"country_id":1,"geoid":484720,"name_en":"Talovyy","lat":47.80765,"name_ru":"Таловый","id":497,"lon":40.10943},{"country_id":1,"geoid":484907,"name_en":"Taganrog","lat":47.23617,"name_ru":"Таганрог","id":498,"lon":38.89688},{"country_id":1,"geoid":488864,"name_en":"Starocherkasskaya","lat":47.24077,"name_ru":"Старочеркасская","id":499,"lon":40.04186},{"country_id":1,"geoid":489062,"name_en":"Staraya Stanitsa","lat":48.33633,"name_ru":"Старая Станица","id":500,"lon":40.29588},{"country_id":1,"geoid":491171,"name_en":"Sokolovo-Kundryuchenskiy","lat":47.83536,"name_ru":"Соколово-Кундрюченский","id":501,"lon":39.94711},{"country_id":1,"geoid":493839,"name_en":"Sholokhovskiy","lat":48.28071,"name_ru":"Шолоховский","id":502,"lon":41.04592},{"country_id":1,"geoid":499040,"name_en":"Sambek","lat":47.74306,"name_ru":"Самбек","id":503,"lon":39.83083},{"country_id":1,"geoid":499055,"name_en":"Samarskoye","lat":46.937,"name_ru":"Самарское","id":504,"lon":39.6881},{"country_id":1,"geoid":499161,"name_en":"Sal'sk","lat":46.4747,"name_ru":"Сальск","id":505,"lon":41.54114},{"country_id":1,"geoid":501175,"name_en":"Rostov-na-Donu","lat":47.23135,"name_ru":"Ростов-на-Дону","id":506,"lon":39.72328},{"country_id":1,"geoid":501405,"name_en":"Romanovskaya","lat":47.5426,"name_ru":"Романовская","id":507,"lon":42.0285},{"country_id":1,"geoid":501774,"name_en":"Rodionovo-Nesvetayskaya","lat":47.61033,"name_ru":"Родионово-Несветайская","id":508,"lon":39.71212},{"country_id":1,"geoid":501775,"name_en":"Rodionovo-Nesvetaiskoye","lat":47.6,"name_ru":"Родионово-Несветаиское","id":509,"lon":39.7},{"country_id":1,"geoid":504831,"name_en":"Proletarsk","lat":46.70289,"name_ru":"Пролетарск","id":510,"lon":41.72717},{"country_id":1,"geoid":507427,"name_en":"Pokrovskoye","lat":47.4157,"name_ru":"Покровское","id":511,"lon":38.89706},{"country_id":1,"geoid":514796,"name_en":"Orlovskiy","lat":46.87139,"name_ru":"Орловский","id":512,"lon":42.05917},{"country_id":1,"geoid":515582,"name_en":"Ol'ginskaya","lat":47.18794,"name_ru":"Ольгинская","id":513,"lon":39.94925},{"country_id":1,"geoid":516454,"name_en":"Oblivskaya","lat":48.53616,"name_ru":"Обливская","id":514,"lon":42.50138},{"country_id":1,"geoid":517963,"name_en":"Novoshakhtinsk","lat":47.76037,"name_ru":"Новошахтинск","id":515,"lon":39.93335},{"country_id":1,"geoid":528137,"name_en":"Mechetinskaya","lat":46.7713,"name_ru":"Мечетинская","id":516,"lon":40.45597},{"country_id":1,"geoid":528242,"name_en":"Mayskiy","lat":47.696,"name_ru":"Майский","id":517,"lon":40.10259},{"country_id":1,"geoid":528495,"name_en":"Matveyev Kurgan","lat":47.5645,"name_ru":"Матвеев Курган","id":518,"lon":38.86947},{"country_id":1,"geoid":538061,"name_en":"Kuybyshevo","lat":47.81228,"name_ru":"Куйбышево","id":519,"lon":38.90731},{"country_id":1,"geoid":540797,"name_en":"Krivyanskaya","lat":47.39625,"name_ru":"Кривянская","id":520,"lon":40.1662},{"country_id":1,"geoid":541404,"name_en":"Krasnyy Sulin","lat":47.89221,"name_ru":"Красный Сулин","id":521,"lon":40.07037},{"country_id":1,"geoid":542143,"name_en":"Krasnoyarskaya","lat":47.6501,"name_ru":"Красноярская","id":522,"lon":42.0443},{"country_id":1,"geoid":552006,"name_en":"Kashary","lat":49.04001,"name_ru":"Кашары","id":523,"lon":41.00557},{"country_id":1,"geoid":463637,"name_en":"Zernograd","lat":46.84518,"name_ru":"Зерноград","id":524,"lon":40.30834},{"country_id":1,"geoid":464130,"name_en":"Masalovka","lat":48.40372,"name_ru":"Масаловка","id":525,"lon":40.26064},{"country_id":1,"geoid":464179,"name_en":"Zavetnoye","lat":47.11944,"name_ru":"Заветное","id":526,"lon":43.89028},{"country_id":1,"geoid":559740,"name_en":"Gornyatskiy","lat":48.29147,"name_ru":"Горняцкий","id":527,"lon":40.9575},{"country_id":1,"geoid":561146,"name_en":"Glubokiy","lat":48.52759,"name_ru":"Глубокий","id":528,"lon":40.32792},{"country_id":1,"geoid":561501,"name_en":"Gigant","lat":46.50665,"name_ru":"Гигант","id":529,"lon":41.34185},{"country_id":1,"geoid":472761,"name_en":"Volgodonsk","lat":47.51361,"name_ru":"Волгодонск","id":530,"lon":42.15139},{"country_id":1,"geoid":484017,"name_en":"Tatsinskiy","lat":48.19677,"name_ru":"Тацинская","id":531,"lon":41.27558},{"country_id":1,"geoid":492853,"name_en":"Sinegorskiy","lat":48.01389,"name_ru":"Синегорский","id":532,"lon":40.84468},{"country_id":1,"geoid":496015,"name_en":"Shakhty","lat":47.70911,"name_ru":"Шахты","id":533,"lon":40.21443},{"country_id":1,"geoid":497218,"name_en":"Semikarakorsk","lat":47.51943,"name_ru":"Семикаракорск","id":534,"lon":40.8112},{"country_id":1,"geoid":502185,"name_en":"Remontnoye","lat":46.5614,"name_ru":"Ремонтное","id":535,"lon":43.6501},{"country_id":1,"geoid":510613,"name_en":"Peschanokopskoye","lat":46.19517,"name_ru":"Песчанокопское","id":536,"lon":41.08143},{"country_id":1,"geoid":518970,"name_en":"Novocherkassk","lat":47.42018,"name_ru":"Новочеркасск","id":537,"lon":40.09132},{"country_id":1,"geoid":519033,"name_en":"Novobataysk","lat":46.89806,"name_ru":"Новобатайск","id":538,"lon":39.78194},{"country_id":1,"geoid":525162,"name_en":"Morozovsk","lat":48.35502,"name_ru":"Морозовск","id":539,"lon":41.82627},{"country_id":1,"geoid":535254,"name_en":"Likhovskoy","lat":48.15188,"name_ru":"Лиховской","id":540,"lon":40.17925},{"country_id":1,"geoid":545277,"name_en":"Konstantinovsk","lat":47.58278,"name_ru":"Константиновск","id":541,"lon":41.09222},{"country_id":1,"geoid":546579,"name_en":"Koksovyy","lat":48.20058,"name_ru":"Коксовый","id":542,"lon":40.65089},{"country_id":1,"geoid":568429,"name_en":"Chertkovo","lat":49.3847,"name_ru":"Чертково","id":543,"lon":40.15471},{"country_id":1,"geoid":548390,"name_en":"Kirovskaya","lat":46.9748,"name_ru":"Кировская","id":544,"lon":40.0402},{"country_id":1,"geoid":553399,"name_en":"Kamensk-Shakhtinskiy","lat":48.31779,"name_ru":"Каменск","id":545,"lon":40.25948},{"country_id":1,"geoid":570021,"name_en":"Chaltyr","lat":47.28477,"name_ru":"Чалтырь","id":546,"lon":39.48232},{"country_id":1,"geoid":579771,"name_en":"Bagayevskaya","lat":47.32411,"name_ru":"Багаевская","id":547,"lon":40.38791},{"country_id":1,"geoid":564593,"name_en":"Dubovskoye","lat":47.4142,"name_ru":"Дубовское","id":548,"lon":42.7697},{"country_id":1,"geoid":580139,"name_en":"Ayutinskiy","lat":47.78228,"name_ru":"Аютинский","id":549,"lon":40.14763},{"country_id":1,"geoid":565300,"name_en":"Donskoy","lat":47.41404,"name_ru":"Донской","id":550,"lon":40.25742},{"country_id":1,"geoid":565348,"name_en":"Donetsk","lat":48.33487,"name_ru":"Донецк","id":551,"lon":39.9459},{"country_id":1,"geoid":575413,"name_en":"Bokovskaya","lat":49.22899,"name_ru":"Боковская","id":552,"lon":41.8306},{"country_id":1,"geoid":583673,"name_en":"Aksay","lat":47.25838,"name_ru":"Аксай","id":553,"lon":39.86675},{"country_id":1,"geoid":802714,"name_en":"Persianovka","lat":47.52972,"name_ru":"Персиановский","id":554,"lon":39.41833},{"country_id":1,"geoid":557588,"name_en":"Idritsa","lat":56.33157,"name_ru":"Идрица","id":555,"lon":28.89884},{"country_id":1,"geoid":476077,"name_en":"Velikiye Luki","lat":56.34,"name_ru":"Великие Луки","id":556,"lon":30.54517},{"country_id":1,"geoid":503965,"name_en":"Pushkinskiye Gory","lat":57.02085,"name_ru":"Пушкинские Горы","id":557,"lon":28.9103},{"country_id":1,"geoid":504341,"name_en":"Pskov","lat":57.8136,"name_ru":"Псков","id":558,"lon":28.3496},{"country_id":1,"geoid":506278,"name_en":"Porkhov","lat":57.76502,"name_ru":"Порхов","id":559,"lon":29.55612},{"country_id":1,"geoid":514171,"name_en":"Ostrov","lat":57.34395,"name_ru":"Остров","id":560,"lon":28.35368},{"country_id":1,"geoid":517921,"name_en":"Novosokol'niki","lat":56.34634,"name_ru":"Новосокольники","id":561,"lon":30.15778},{"country_id":1,"geoid":566868,"name_en":"Dedovichi","lat":57.55166,"name_ru":"Дедовичи","id":562,"lon":29.95018},{"country_id":1,"geoid":487110,"name_en":"Strugi-Krasnyye","lat":58.26754,"name_ru":"Струги-Красные","id":563,"lon":29.11137},{"country_id":1,"geoid":498001,"name_en":"Sebezh","lat":56.29546,"name_ru":"Себеж","id":564,"lon":28.46538},{"country_id":1,"geoid":503374,"name_en":"Pytalovo","lat":57.06791,"name_ru":"Пыталово","id":565,"lon":27.91384},{"country_id":1,"geoid":503878,"name_en":"Pustoshka","lat":56.33547,"name_ru":"Пустошка","id":566,"lon":29.36901},{"country_id":1,"geoid":511785,"name_en":"Pechory","lat":57.81642,"name_ru":"Печоры","id":567,"lon":27.6119},{"country_id":1,"geoid":515155,"name_en":"Opochka","lat":56.71048,"name_ru":"Опочка","id":568,"lon":28.66174},{"country_id":1,"geoid":522410,"name_en":"Nevel'","lat":56.02094,"name_ru":"Невель","id":569,"lon":29.92844},{"country_id":1,"geoid":561679,"name_en":"Gdov","lat":58.74424,"name_ru":"Гдов","id":570,"lon":27.81977},{"country_id":1,"geoid":565885,"name_en":"Dno","lat":57.82772,"name_ru":"Дно","id":571,"lon":29.96368},{"country_id":1,"geoid":532675,"name_en":"Lys'va","lat":58.10861,"name_ru":"Лысьва","id":572,"lon":57.80528},{"country_id":1,"geoid":538046,"name_en":"Kuyeda","lat":56.4311,"name_ru":"Куеда","id":573,"lon":55.58861},{"country_id":1,"geoid":539147,"name_en":"Kungur","lat":57.4368,"name_ru":"Кунгур","id":574,"lon":56.9593},{"country_id":1,"geoid":467711,"name_en":"Yelovo","lat":57.05381,"name_ru":"Елово","id":575,"lon":54.9207},{"country_id":1,"geoid":468560,"name_en":"Yayva","lat":59.3347,"name_ru":"Яйва","id":576,"lon":57.2592},{"country_id":1,"geoid":569359,"name_en":"Cherdyn'","lat":60.40295,"name_ru":"Чердынь","id":577,"lon":56.47868},{"country_id":1,"geoid":577206,"name_en":"Berezniki","lat":59.4091,"name_ru":"Березники","id":578,"lon":56.8204},{"country_id":1,"geoid":579132,"name_en":"Barda","lat":56.9287,"name_ru":"Барда","id":579,"lon":55.5962},{"country_id":1,"geoid":475777,"name_en":"Vereshchagino","lat":58.07894,"name_ru":"Верещагино","id":580,"lon":54.6557},{"country_id":1,"geoid":583041,"name_en":"Aleksandrovsk","lat":59.1581,"name_ru":"Александровск","id":581,"lon":57.5695},{"country_id":1,"geoid":478269,"name_en":"Usol'ye","lat":59.4219,"name_ru":"Усолье","id":582,"lon":56.6862},{"country_id":1,"geoid":479535,"name_en":"Ugleural'skiy","lat":58.9443,"name_ru":"Углеуральский","id":583,"lon":57.5937},{"country_id":1,"geoid":491023,"name_en":"Solikamsk","lat":59.6316,"name_ru":"Соликамск","id":584,"lon":56.7685},{"country_id":1,"geoid":507318,"name_en":"Polazna","lat":58.2922,"name_ru":"Полазна","id":585,"lon":56.4156},{"country_id":1,"geoid":514706,"name_en":"Osa","lat":57.283,"name_ru":"Оса","id":586,"lon":55.4589},{"country_id":1,"geoid":515098,"name_en":"Orda","lat":57.19509,"name_ru":"Орда","id":587,"lon":56.90908},{"country_id":1,"geoid":516073,"name_en":"Okhansk","lat":57.7203,"name_ru":"Оханск","id":588,"lon":55.3882},{"country_id":1,"geoid":516256,"name_en":"Ocher","lat":57.89035,"name_ru":"Очер","id":589,"lon":54.72019},{"country_id":1,"geoid":516576,"name_en":"Nytva","lat":57.9437,"name_ru":"Нытва","id":590,"lon":55.3396},{"country_id":1,"geoid":516588,"name_en":"Nyrob","lat":60.733,"name_ru":"Ныроб","id":591,"lon":56.72024},{"country_id":1,"geoid":517111,"name_en":"Novyye Lyady","lat":58.0552,"name_ru":"Новые Ляды","id":592,"lon":56.6104},{"country_id":1,"geoid":542184,"name_en":"Krasnovishersk","lat":60.40783,"name_ru":"Красновишерск","id":593,"lon":57.08199},{"country_id":1,"geoid":542327,"name_en":"Krasnokamsk","lat":58.0796,"name_ru":"Краснокамск","id":594,"lon":55.7552},{"country_id":1,"geoid":552887,"name_en":"Karagay","lat":58.26669,"name_ru":"Карагай","id":595,"lon":54.93678},{"country_id":1,"geoid":559752,"name_en":"Gornozavodsk","lat":58.37583,"name_ru":"Горнозаводск","id":596,"lon":58.32111},{"country_id":1,"geoid":466699,"name_en":"Yugo-Kamskiy","lat":57.7026,"name_ru":"Юго-Камский","id":597,"lon":55.5904},{"country_id":1,"geoid":485230,"name_en":"Sylva","lat":58.0327,"name_ru":"Сылва","id":598,"lon":56.7713},{"country_id":1,"geoid":486413,"name_en":"Suksun","lat":57.1431,"name_ru":"Суксун","id":599,"lon":57.3949},{"country_id":1,"geoid":498501,"name_en":"Sars","lat":56.55017,"name_ru":"Сарс","id":600,"lon":57.13658},{"country_id":1,"geoid":511196,"name_en":"Perm","lat":58.01046,"name_ru":"Пермь","id":601,"lon":56.25017},{"country_id":1,"geoid":539817,"name_en":"Kudymkar","lat":59.01306,"name_ru":"Кудымкар","id":602,"lon":54.65556},{"country_id":1,"geoid":567434,"name_en":"Chusovoy","lat":58.3013,"name_ru":"Чусовой","id":603,"lon":57.8131},{"country_id":1,"geoid":547875,"name_en":"Kizel","lat":59.04709,"name_ru":"Кизел","id":604,"lon":57.64767},{"country_id":1,"geoid":568608,"name_en":"Chernushka","lat":56.50722,"name_ru":"Чернушка","id":605,"lon":56.07661},{"country_id":1,"geoid":569742,"name_en":"Chaykovskiy","lat":56.76864,"name_ru":"Чайковский","id":606,"lon":54.11484},{"country_id":1,"geoid":558209,"name_en":"Gubakha","lat":58.83862,"name_ru":"Губаха","id":607,"lon":57.55325},{"country_id":1,"geoid":558885,"name_en":"Gremyachinsk","lat":58.5603,"name_ru":"Гремячинск","id":608,"lon":57.851},{"country_id":1,"geoid":565778,"name_en":"Dobryanka","lat":58.4644,"name_ru":"Добрянка","id":609,"lon":56.4127},{"country_id":1,"geoid":829032,"name_en":"Kondratovo","lat":57.9804,"name_ru":"Кондратово","id":610,"lon":56.1066},{"country_id":1,"geoid":831140,"name_en":"Zvezdnyy","lat":57.7325,"name_ru":"Звездный","id":611,"lon":56.31472},{"country_id":1,"geoid":532092,"name_en":"Makhalino","lat":53.08543,"name_ru":"Махалино","id":612,"lon":46.22108},{"country_id":1,"geoid":533284,"name_en":"Lunino","lat":53.59176,"name_ru":"Лунино","id":613,"lon":45.22709},{"country_id":1,"geoid":537737,"name_en":"Kuznetsk","lat":53.11675,"name_ru":"Кузнецк","id":614,"lon":46.60037},{"country_id":1,"geoid":569453,"name_en":"Chemodanovka","lat":53.23162,"name_ru":"Чемодановка","id":615,"lon":45.24738},{"country_id":1,"geoid":576663,"name_en":"Bessonovka","lat":53.30968,"name_ru":"Бессоновка","id":616,"lon":45.04069},{"country_id":1,"geoid":578263,"name_en":"Bekovo","lat":52.46632,"name_ru":"Беково","id":617,"lon":43.71199},{"country_id":1,"geoid":578842,"name_en":"Bashmakovo","lat":53.21329,"name_ru":"Башмаково","id":618,"lon":43.0342},{"country_id":1,"geoid":484674,"name_en":"Tamala","lat":52.54097,"name_ru":"Тамала","id":619,"lon":43.25145},{"country_id":1,"geoid":486048,"name_en":"Sursk","lat":53.07542,"name_ru":"Сурск","id":620,"lon":45.68461},{"country_id":1,"geoid":489393,"name_en":"Srednyaya Yelyuzan'","lat":53.0241,"name_ru":"Средняя Елюзань","id":621,"lon":45.9529},{"country_id":1,"geoid":490211,"name_en":"Sosnovoborsk","lat":53.29066,"name_ru":"Сосновоборск","id":622,"lon":46.24849},{"country_id":1,"geoid":494900,"name_en":"Shemysheyka","lat":52.89196,"name_ru":"Шемышейка","id":623,"lon":45.39282},{"country_id":1,"geoid":500400,"name_en":"Russkiy Kameshkir","lat":52.85955,"name_ru":"Русский Камешкир","id":624,"lon":46.08861},{"country_id":1,"geoid":511565,"name_en":"Penza","lat":53.20066,"name_ru":"Пенза","id":625,"lon":45.00464},{"country_id":1,"geoid":513309,"name_en":"Pachelma","lat":53.24426,"name_ru":"Пачелма","id":626,"lon":43.35205},{"country_id":1,"geoid":520574,"name_en":"Nizhniy Lomov","lat":53.53041,"name_ru":"Нижний Ломов","id":627,"lon":43.67663},{"country_id":1,"geoid":521776,"name_en":"Nikol'sk","lat":53.71886,"name_ru":"Никольск","id":628,"lon":46.07118},{"country_id":1,"geoid":463710,"name_en":"Zemetchino","lat":53.4973,"name_ru":"Земетчино","id":629,"lon":42.61632},{"country_id":1,"geoid":559158,"name_en":"Grabovo","lat":53.38751,"name_ru":"Грабово","id":630,"lon":45.06395},{"country_id":1,"geoid":559643,"name_en":"Gorodishche","lat":53.2775,"name_ru":"Городище","id":631,"lon":45.7017},{"country_id":1,"geoid":464625,"name_en":"Zarechnyy","lat":53.20356,"name_ru":"Заречный","id":632,"lon":45.19227},{"country_id":1,"geoid":496934,"name_en":"Serdobsk","lat":52.45861,"name_ru":"Сердобск","id":633,"lon":44.21689},{"country_id":1,"geoid":522402,"name_en":"Neverkino","lat":52.78541,"name_ru":"Неверкино","id":634,"lon":46.74174},{"country_id":1,"geoid":525659,"name_en":"Mokshan","lat":53.4365,"name_ru":"Мокшан","id":635,"lon":44.61322},{"country_id":1,"geoid":545982,"name_en":"Kolyshley","lat":52.7005,"name_ru":"Колышлей","id":636,"lon":44.5367},{"country_id":1,"geoid":570133,"name_en":"Chaadayevka","lat":53.1427,"name_ru":"Чаадаевка","id":637,"lon":45.9122},{"country_id":1,"geoid":555798,"name_en":"Issa","lat":53.87049,"name_ru":"Исса","id":638,"lon":44.85781},{"country_id":1,"geoid":578045,"name_en":"Belinskiy","lat":52.96474,"name_ru":"Белинский","id":639,"lon":43.41647},{"country_id":1,"geoid":831165,"name_en":"Zarechnyy","lat":53.13333,"name_ru":"Заречный","id":640,"lon":46.58333},{"country_id":1,"geoid":524640,"name_en":"Mtsensk","lat":53.27657,"name_ru":"Мценск","id":641,"lon":36.57334},{"country_id":1,"geoid":462352,"name_en":"Znamenka","lat":52.89789,"name_ru":"Знаменка","id":642,"lon":35.97703},{"country_id":1,"geoid":462377,"name_en":"Zmiyevka","lat":52.66697,"name_ru":"Змиевка","id":643,"lon":36.37426},{"country_id":1,"geoid":474324,"name_en":"Verkhov'ye","lat":52.81165,"name_ru":"Верховье","id":644,"lon":37.24215},{"country_id":1,"geoid":523382,"name_en":"Naryshkino","lat":52.96778,"name_ru":"Нарышкино","id":645,"lon":35.72677},{"country_id":1,"geoid":540776,"name_en":"Kromy","lat":52.68762,"name_ru":"Кромы","id":646,"lon":35.76665},{"country_id":1,"geoid":561313,"name_en":"Glazunovka","lat":52.50057,"name_ru":"Глазуновка","id":647,"lon":36.31997},{"country_id":1,"geoid":465291,"name_en":"Zalegoshch'","lat":52.8989,"name_ru":"Залегощь","id":648,"lon":36.89093},{"country_id":1,"geoid":515012,"name_en":"Orel","lat":52.96508,"name_ru":"Орёл","id":649,"lon":36.07849},{"country_id":1,"geoid":534701,"name_en":"Livny","lat":52.42534,"name_ru":"Ливны","id":650,"lon":37.60689},{"country_id":1,"geoid":546092,"name_en":"Kolpny","lat":52.22823,"name_ru":"Колпны","id":651,"lon":37.03683},{"country_id":1,"geoid":565908,"name_en":"Dmitrovsk-Orlovskiy","lat":52.505,"name_ru":"Дмитровск-Орловский","id":652,"lon":35.1464},{"country_id":1,"geoid":575364,"name_en":"Bolkhov","lat":53.44295,"name_ru":"Болхов","id":653,"lon":36.00546},{"country_id":1,"geoid":528109,"name_en":"Mednogorsk","lat":51.4128,"name_ru":"Медногорск","id":654,"lon":57.595},{"country_id":1,"geoid":538138,"name_en":"Kuvandyk","lat":51.4781,"name_ru":"Кувандык","id":655,"lon":57.3552},{"country_id":1,"geoid":557340,"name_en":"Ilek","lat":51.52709,"name_ru":"Илек","id":656,"lon":53.38306},{"country_id":1,"geoid":468657,"name_en":"Yasnyy","lat":51.0333,"name_ru":"Ясный","id":657,"lon":59.8742},{"country_id":1,"geoid":479871,"name_en":"Tyul'gan","lat":52.34049,"name_ru":"Тюльган","id":658,"lon":56.16604},{"country_id":1,"geoid":481955,"name_en":"Totskoye","lat":52.52478,"name_ru":"Тоцкое","id":659,"lon":52.76228},{"country_id":1,"geoid":484232,"name_en":"Tashla","lat":51.77157,"name_ru":"Ташла","id":660,"lon":52.7427},{"country_id":1,"geoid":490554,"name_en":"Sorochinsk","lat":52.4338,"name_ru":"Сорочинск","id":661,"lon":53.1583},{"country_id":1,"geoid":491019,"name_en":"Sol'-Iletsk","lat":51.1631,"name_ru":"Соль-Илецк","id":662,"lon":54.99176},{"country_id":1,"geoid":495670,"name_en":"Sharlyk","lat":52.91667,"name_ru":"Шарлык","id":663,"lon":54.75},{"country_id":1,"geoid":514734,"name_en":"Orsk","lat":51.20487,"name_ru":"Орск","id":664,"lon":58.56685},{"country_id":1,"geoid":515003,"name_en":"Orenburg","lat":51.7727,"name_ru":"Оренбург","id":665,"lon":55.0988},{"country_id":1,"geoid":517982,"name_en":"Novosergiyevka","lat":52.0934,"name_ru":"Новосергиевка","id":666,"lon":53.6528},{"country_id":1,"geoid":518418,"name_en":"Novoorsk","lat":51.381,"name_ru":"Новоорск","id":667,"lon":58.9813},{"country_id":1,"geoid":542322,"name_en":"Krasnokholm","lat":51.59787,"name_ru":"Краснохолм","id":668,"lon":54.1567},{"country_id":1,"geoid":561731,"name_en":"Gay","lat":51.4666,"name_ru":"Гай","id":669,"lon":58.4552},{"country_id":1,"geoid":563471,"name_en":"Energetik","lat":51.7445,"name_ru":"Энергетик","id":670,"lon":58.7934},{"country_id":1,"geoid":498708,"name_en":"Saraktash","lat":51.78771,"name_ru":"Саракташ","id":671,"lon":56.36091},{"country_id":1,"geoid":511291,"name_en":"Perevolotskiy","lat":51.87633,"name_ru":"Переволотский","id":672,"lon":54.19378},{"country_id":1,"geoid":517836,"name_en":"Novotroitsk","lat":51.20301,"name_ru":"Новотроицк","id":673,"lon":58.32665},{"country_id":1,"geoid":522312,"name_en":"Nezhinka","lat":51.7676,"name_ru":"Нежинка","id":674,"lon":55.3694},{"country_id":1,"geoid":570427,"name_en":"Buzuluk","lat":52.7807,"name_ru":"Бузулук","id":675,"lon":52.2635},{"country_id":1,"geoid":571159,"name_en":"Buguruslan","lat":53.6554,"name_ru":"Бугуруслан","id":676,"lon":52.442},{"country_id":1,"geoid":577630,"name_en":"Belyayevka","lat":51.39742,"name_ru":"Беляевка","id":677,"lon":56.41667},{"country_id":1,"geoid":580676,"name_en":"Asekeyevo","lat":53.57425,"name_ru":"Асекеево","id":678,"lon":52.79724},{"country_id":1,"geoid":565407,"name_en":"Dombarovskiy","lat":50.7587,"name_ru":"Домбаровский","id":679,"lon":59.5386},{"country_id":1,"geoid":584279,"name_en":"Adamovka","lat":51.5223,"name_ru":"Адамовка","id":680,"lon":59.9396},{"country_id":1,"geoid":584471,"name_en":"Abdulino","lat":53.7,"name_ru":"Абдулино","id":681,"lon":53.66667},{"country_id":1,"geoid":1490501,"name_en":"Svetlyy","lat":50.81833,"name_ru":"Светлый","id":682,"lon":60.85194},{"country_id":1,"geoid":531257,"name_en":"Malaya Vishera","lat":58.84538,"name_ru":"Малая Вишера","id":683,"lon":32.22218},{"country_id":1,"geoid":548890,"name_en":"Khvoynaya","lat":58.9,"name_ru":"Хвойная","id":684,"lon":34.53333},{"country_id":1,"geoid":477301,"name_en":"Valday","lat":57.97472,"name_ru":"Валдай","id":685,"lon":33.2525},{"country_id":1,"geoid":489088,"name_en":"Staraya Russa","lat":57.99439,"name_ru":"Старая Русса","id":686,"lon":31.36081},{"country_id":1,"geoid":490750,"name_en":"Sol'tsy","lat":58.12387,"name_ru":"Сольцы","id":687,"lon":30.32377},{"country_id":1,"geoid":504840,"name_en":"Proletariy","lat":58.43423,"name_ru":"Пролетарий","id":688,"lon":31.70462},{"country_id":1,"geoid":512570,"name_en":"Parfino","lat":57.97306,"name_ru":"Парфино","id":689,"lon":31.64806},{"country_id":1,"geoid":512817,"name_en":"Pankovka","lat":58.50004,"name_ru":"Панковка","id":690,"lon":31.1999},{"country_id":1,"geoid":515771,"name_en":"Okulovka","lat":58.40083,"name_ru":"Окуловка","id":691,"lon":33.29083},{"country_id":1,"geoid":541116,"name_en":"Kresttsy","lat":58.2452,"name_ru":"Крестцы","id":692,"lon":32.51647},{"country_id":1,"geoid":566629,"name_en":"Demyansk","lat":57.64301,"name_ru":"Демянск","id":693,"lon":32.466},{"country_id":1,"geoid":510364,"name_en":"Pestovo","lat":58.59382,"name_ru":"Пестово","id":694,"lon":35.80244},{"country_id":1,"geoid":519336,"name_en":"Velikiy Novgorod","lat":58.52131,"name_ru":"Великий Новгород","id":695,"lon":31.27104},{"country_id":1,"geoid":567774,"name_en":"Chudovo","lat":59.11667,"name_ru":"Чудово","id":696,"lon":31.68333},{"country_id":1,"geoid":572154,"name_en":"Borovichi","lat":58.38778,"name_ru":"Боровичи","id":697,"lon":33.91546},{"country_id":1,"geoid":524736,"name_en":"Mozdok","lat":43.74359,"name_ru":"Моздок","id":698,"lon":44.65177},{"country_id":1,"geoid":553828,"name_en":"Kambileyevskoye","lat":43.07858,"name_ru":"Камбилеевское","id":699,"lon":44.75216},{"country_id":1,"geoid":462383,"name_en":"Zmeyskaya","lat":43.33617,"name_ru":"Змейская","id":700,"lon":44.15733},{"country_id":1,"geoid":566243,"name_en":"Digora","lat":43.15806,"name_ru":"Дигора","id":701,"lon":44.15694},{"country_id":1,"geoid":576697,"name_en":"Beslan","lat":43.19217,"name_ru":"Беслан","id":702,"lon":44.54313},{"country_id":1,"geoid":512217,"name_en":"Pavlodol'skaya","lat":43.71923,"name_ru":"Павлодольская","id":703,"lon":44.47815},{"country_id":1,"geoid":561437,"name_en":"Gizel'","lat":43.04,"name_ru":"Гизель","id":704,"lon":44.57083},{"country_id":1,"geoid":473249,"name_en":"Vladikavkaz","lat":43.03667,"name_ru":"Владикавказ","id":705,"lon":44.66778},{"country_id":1,"geoid":486203,"name_en":"Sunzha","lat":43.05862,"name_ru":"Сунжа","id":706,"lon":44.82281},{"country_id":1,"geoid":520065,"name_en":"Nogir","lat":43.08162,"name_ru":"Ногир","id":707,"lon":44.6365},{"country_id":1,"geoid":526749,"name_en":"Mikhaylovskoye","lat":43.09972,"name_ru":"Михайловское","id":708,"lon":44.63164},{"country_id":1,"geoid":547841,"name_en":"Kizlyar","lat":43.70379,"name_ru":"Кизляр","id":709,"lon":44.5944},{"country_id":1,"geoid":568184,"name_en":"Chikola","lat":43.19055,"name_ru":"Чикола","id":710,"lon":43.92093},{"country_id":1,"geoid":569132,"name_en":"Chermen","lat":43.14861,"name_ru":"Чермен","id":711,"lon":44.70694},{"country_id":1,"geoid":580942,"name_en":"Arkhonskaya","lat":43.11,"name_ru":"Архонская","id":712,"lon":44.5125},{"country_id":1,"geoid":581179,"name_en":"Ardon","lat":43.1772,"name_ru":"Ардон","id":713,"lon":44.29702},{"country_id":1,"geoid":802078,"name_en":"Alagir","lat":43.04222,"name_ru":"Алагир","id":714,"lon":44.22222},{"country_id":1,"geoid":523392,"name_en":"Nar'yan-Mar","lat":67.63869,"name_ru":"Нарьян-Мар","id":715,"lon":53.00371},{"country_id":1,"geoid":866062,"name_en":"Iskateley","lat":67.68026,"name_ru":"Искателей","id":716,"lon":53.15117},{"country_id":1,"geoid":524299,"name_en":"Murmashi","lat":68.81542,"name_ru":"Мурмаши","id":717,"lon":32.81147},{"country_id":1,"geoid":524305,"name_en":"Murmansk","lat":68.97917,"name_ru":"Мурманск","id":718,"lon":33.09251},{"country_id":1,"geoid":553190,"name_en":"Kandalaksha","lat":67.162,"name_ru":"Кандалакша","id":719,"lon":32.41229},{"country_id":1,"geoid":479071,"name_en":"Umba","lat":66.68706,"name_ru":"Умба","id":720,"lon":34.34291},{"country_id":1,"geoid":501265,"name_en":"Roslyakovo","lat":69.04303,"name_ru":"Росляково","id":721,"lon":33.19906},{"country_id":1,"geoid":502010,"name_en":"Revda","lat":67.9371,"name_ru":"Ревда","id":722,"lon":34.56149},{"country_id":1,"geoid":506762,"name_en":"Polyarnyye Zori","lat":67.36611,"name_ru":"Полярные Зори","id":723,"lon":32.49806},{"country_id":1,"geoid":506763,"name_en":"Polyarnyy","lat":69.19889,"name_ru":"Полярный","id":724,"lon":33.44778},{"country_id":1,"geoid":522260,"name_en":"Nikel'","lat":69.41285,"name_ru":"Никель","id":725,"lon":30.22198},{"country_id":1,"geoid":543508,"name_en":"Kovdor","lat":67.56616,"name_ru":"Ковдор","id":726,"lon":30.47576},{"country_id":1,"geoid":463838,"name_en":"Zelenoborskiy","lat":66.845,"name_ru":"Зеленоборский","id":727,"lon":32.36222},{"country_id":1,"geoid":464790,"name_en":"Zapolyarnyy","lat":69.41541,"name_ru":"Заполярный","id":728,"lon":30.81355},{"country_id":1,"geoid":473762,"name_en":"Vidyayevo","lat":68.88333,"name_ru":"Видяево","id":729,"lon":33.01667},{"country_id":1,"geoid":496278,"name_en":"Severomorsk","lat":69.06889,"name_ru":"Североморск","id":730,"lon":33.41622},{"country_id":1,"geoid":515698,"name_en":"Olenegorsk","lat":68.1432,"name_ru":"Оленегорск","id":731,"lon":33.25287},{"country_id":1,"geoid":525404,"name_en":"Monchegorsk","lat":67.93972,"name_ru":"Мончегорск","id":732,"lon":32.87389},{"country_id":1,"geoid":546554,"name_en":"Kola","lat":68.88062,"name_ru":"Кола","id":733,"lon":33.01842},{"country_id":1,"geoid":548391,"name_en":"Kirovsk","lat":67.61475,"name_ru":"Кировск","id":734,"lon":33.67274},{"country_id":1,"geoid":562245,"name_en":"Gadzhiyevo","lat":69.25506,"name_ru":"Гаджиево","id":735,"lon":33.33616},{"country_id":1,"geoid":581357,"name_en":"Apatity","lat":67.56414,"name_ru":"Апатиты","id":736,"lon":33.4031},{"country_id":1,"geoid":583472,"name_en":"Alakurtti","lat":66.9672,"name_ru":"Алакуртти","id":737,"lon":30.34905},{"country_id":1,"geoid":795235,"name_en":"Vidyayevo","lat":69.31914,"name_ru":"Видяево","id":738,"lon":32.80488},{"country_id":1,"geoid":795243,"name_en":"Snezhnogorsk","lat":69.19333,"name_ru":"Снежногорск","id":739,"lon":33.25314},{"country_id":1,"geoid":828218,"name_en":"Zaozersk","lat":69.40052,"name_ru":"Заозерск","id":740,"lon":32.44761},{"country_id":1,"geoid":866057,"name_en":"Molochnyy","lat":68.85389,"name_ru":"Молочный","id":741,"lon":33.02046},{"country_id":1,"geoid":569273,"name_en":"Cheremushki","lat":55.66473,"name_ru":"Черёмушки","id":742,"lon":37.56135},{"country_id":1,"geoid":576432,"name_en":"Bibirevo","lat":55.88333,"name_ru":"Бибирево","id":743,"lon":37.6},{"country_id":1,"geoid":476372,"name_en":"Vatutinki","lat":55.4965,"name_ru":"Ватутинки","id":744,"lon":37.32988},{"country_id":1,"geoid":481608,"name_en":"Troitsk","lat":55.48498,"name_ru":"Троицк","id":745,"lon":37.30736},{"country_id":1,"geoid":495260,"name_en":"Shcherbinka","lat":55.49972,"name_ru":"Щербинка","id":746,"lon":37.55972},{"country_id":1,"geoid":463829,"name_en":"Zelenograd","lat":55.9825,"name_ru":"Зеленоград","id":747,"lon":37.18139},{"country_id":1,"geoid":511510,"name_en":"Novo-Peredelkino","lat":55.64528,"name_ru":"Ново-Переделкино","id":748,"lon":37.33583},{"country_id":1,"geoid":546606,"name_en":"Kokoshkino","lat":55.59769,"name_ru":"Кокошкино","id":749,"lon":37.1695},{"country_id":1,"geoid":550280,"name_en":"Khimki","lat":55.89704,"name_ru":"Химки","id":750,"lon":37.42969},{"country_id":1,"geoid":570636,"name_en":"Businovo","lat":55.88333,"name_ru":"Бусиново","id":751,"lon":37.5},{"country_id":1,"geoid":857689,"name_en":"Vnukovo","lat":55.61194,"name_ru":"Внуково","id":752,"lon":37.29611},{"country_id":1,"geoid":857690,"name_en":"Moskovskiy","lat":55.59911,"name_ru":"Московский","id":753,"lon":37.35495},{"country_id":1,"geoid":11152665,"name_en":"LMS","lat":55.31425,"name_ru":"ЛМС","id":754,"lon":37.18546},{"country_id":1,"geoid":523426,"name_en":"Naro-Fominsk","lat":55.38752,"name_ru":"Наро-Фоминск","id":755,"lon":36.73307},{"country_id":1,"geoid":523553,"name_en":"Nakhabino","lat":55.84854,"name_ru":"Нахабино","id":756,"lon":37.17789},{"country_id":1,"geoid":523812,"name_en":"Mytishchi","lat":55.91163,"name_ru":"Мытищи","id":757,"lon":37.73076},{"country_id":1,"geoid":524423,"name_en":"Muranovo","lat":56.18333,"name_ru":"Мураново","id":758,"lon":37.9},{"country_id":1,"geoid":524712,"name_en":"Mozhaysk","lat":55.50194,"name_ru":"Можайск","id":759,"lon":36.02722},{"country_id":1,"geoid":526652,"name_en":"Mikhnevo","lat":55.13396,"name_ru":"Михнево","id":760,"lon":37.94425},{"country_id":1,"geoid":527581,"name_en":"Mendeleyevo","lat":56.03333,"name_ru":"Менделеево","id":761,"lon":37.21667},{"country_id":1,"geoid":531820,"name_en":"Malakhovka","lat":55.64776,"name_ru":"Малаховка","id":762,"lon":38.02486},{"country_id":1,"geoid":532615,"name_en":"Lyubertsy","lat":55.67719,"name_ru":"Люберцы","id":763,"lon":37.89322},{"country_id":1,"geoid":532657,"name_en":"Lytkarino","lat":55.58271,"name_ru":"Лыткарино","id":764,"lon":37.90516},{"country_id":1,"geoid":533008,"name_en":"L'vovskiy","lat":55.31872,"name_ru":"Львовский","id":765,"lon":37.52337},{"country_id":1,"geoid":533543,"name_en":"Lukhovitsy","lat":54.97661,"name_ru":"Луховицы","id":766,"lon":39.0444},{"country_id":1,"geoid":533975,"name_en":"Lotoshino","lat":56.23489,"name_ru":"Лотошино","id":767,"lon":35.64273},{"country_id":1,"geoid":534015,"name_en":"Losino-Petrovskiy","lat":55.86959,"name_ru":"Лосино-Петровский","id":768,"lon":38.20065},{"country_id":1,"geoid":536206,"name_en":"Yubileyny","lat":55.93333,"name_ru":"Юбилейный","id":769,"lon":37.83333},{"country_id":1,"geoid":538601,"name_en":"Kurovskoye","lat":55.58183,"name_ru":"Куровское","id":770,"lon":38.91994},{"country_id":1,"geoid":539069,"name_en":"Kupavna","lat":55.74576,"name_ru":"Купавна","id":771,"lon":38.13136},{"country_id":1,"geoid":549373,"name_en":"Khot'kovo","lat":56.25699,"name_ru":"Хотьково","id":772,"lon":37.99544},{"country_id":1,"geoid":554233,"name_en":"Korolev","lat":55.91417,"name_ru":"Королёв","id":773,"lon":37.82556},{"country_id":1,"geoid":461920,"name_en":"Zvenigorod","lat":55.73401,"name_ru":"Звенигород","id":774,"lon":36.85918},{"country_id":1,"geoid":554679,"name_en":"Kabanovo","lat":55.74815,"name_ru":"Кабаново","id":775,"lon":38.93511},{"country_id":1,"geoid":555746,"name_en":"Istra","lat":55.91997,"name_ru":"Истра","id":776,"lon":36.86867},{"country_id":1,"geoid":556463,"name_en":"Imeni Vorovskogo","lat":55.7319,"name_ru":"имени Воровского","id":777,"lon":38.32368},{"country_id":1,"geoid":462755,"name_en":"Zhukovskiy","lat":55.59528,"name_ru":"Жуковский","id":778,"lon":38.12028},{"country_id":1,"geoid":557140,"name_en":"Il'inskiy","lat":55.61902,"name_ru":"Ильинский","id":779,"lon":38.11818},{"country_id":1,"geoid":557657,"name_en":"Gzhel'","lat":55.61008,"name_ru":"Гжель","id":780,"lon":38.39399},{"country_id":1,"geoid":468250,"name_en":"Yegor'yevsk","lat":55.38283,"name_ru":"Егорьевск","id":781,"lon":39.03233},{"country_id":1,"geoid":562319,"name_en":"Fryazino","lat":55.96056,"name_ru":"Фрязино","id":782,"lon":38.04556},{"country_id":1,"geoid":563705,"name_en":"Dzerzhinskiy","lat":55.62945,"name_ru":"Дзержинский","id":783,"lon":37.85654},{"country_id":1,"geoid":569591,"name_en":"Chekhov","lat":55.1477,"name_ru":"Чехов","id":784,"lon":37.47728},{"country_id":1,"geoid":469655,"name_en":"Yakhroma","lat":56.3,"name_ru":"Яхрома","id":785,"lon":37.48333},{"country_id":1,"geoid":470083,"name_en":"Vysokovsk","lat":56.31667,"name_ru":"Высоковск","id":786,"lon":36.55},{"country_id":1,"geoid":577901,"name_en":"Beloozerskiy","lat":55.45978,"name_ru":"Белоозёрский","id":787,"lon":38.44358},{"country_id":1,"geoid":471457,"name_en":"Vostryakovo","lat":55.39934,"name_ru":"Востряково","id":788,"lon":37.80829},{"country_id":1,"geoid":471656,"name_en":"Voskresensk","lat":55.31733,"name_ru":"Воскресенск","id":789,"lon":38.65264},{"country_id":1,"geoid":579464,"name_en":"Balashikha","lat":55.80945,"name_ru":"Балашиха","id":790,"lon":37.95806},{"country_id":1,"geoid":580227,"name_en":"Avsyunino","lat":55.56516,"name_ru":"Авсюнино","id":791,"lon":39.12324},{"country_id":1,"geoid":475845,"name_en":"Verbilki","lat":56.53333,"name_ru":"Вербилки","id":792,"lon":37.6},{"country_id":1,"geoid":479640,"name_en":"Udel'naya","lat":55.62536,"name_ru":"Удельная","id":793,"lon":38.00285},{"country_id":1,"geoid":480685,"name_en":"Tuchkovo","lat":55.60111,"name_ru":"Тучково","id":794,"lon":36.46806},{"country_id":1,"geoid":482260,"name_en":"Tomilino","lat":55.65619,"name_ru":"Томилино","id":795,"lon":37.94713},{"country_id":1,"geoid":484826,"name_en":"Taldom","lat":56.73333,"name_ru":"Талдом","id":796,"lon":37.53333},{"country_id":1,"geoid":485763,"name_en":"Sverdlovskiy","lat":55.90968,"name_ru":"Свердловский","id":797,"lon":38.14978},{"country_id":1,"geoid":487441,"name_en":"Stolbovaya","lat":55.25021,"name_ru":"Столбовая","id":798,"lon":37.49249},{"country_id":1,"geoid":489162,"name_en":"Staraya Kupavna","lat":55.80799,"name_ru":"Старая Купавна","id":799,"lon":38.1805},{"country_id":1,"geoid":490996,"name_en":"Solnechnogorsk","lat":56.18333,"name_ru":"Солнечногорск","id":800,"lon":36.98333},{"country_id":1,"geoid":491352,"name_en":"Sofrino","lat":56.15,"name_ru":"Софрино","id":801,"lon":37.93333},{"country_id":1,"geoid":492448,"name_en":"Skhodnya","lat":55.94806,"name_ru":"Сходня","id":802,"lon":37.29778},{"country_id":1,"geoid":492768,"name_en":"Novosin'kovo","lat":56.37737,"name_ru":"Новосиньково","id":803,"lon":37.32871},{"country_id":1,"geoid":494806,"name_en":"Sheremet'yevskiy","lat":55.97583,"name_ru":"Шереметьевский","id":804,"lon":37.49417},{"country_id":1,"geoid":495344,"name_en":"Shchelkovo","lat":55.92497,"name_ru":"Щёлково","id":805,"lon":37.97218},{"country_id":1,"geoid":495518,"name_en":"Shatura","lat":55.57253,"name_ru":"Шатура","id":806,"lon":39.53682},{"country_id":1,"geoid":500303,"name_en":"Ruza","lat":55.69898,"name_ru":"Руза","id":807,"lon":36.19522},{"country_id":1,"geoid":500589,"name_en":"Rumyantsevo","lat":55.97278,"name_ru":"Румянцево","id":808,"lon":36.53417},{"country_id":1,"geoid":501320,"name_en":"Roshal'","lat":55.66853,"name_ru":"","id":809,"lon":39.87488},{"country_id":1,"geoid":503977,"name_en":"Pushkino","lat":56.01722,"name_ru":"Пушкино","id":810,"lon":37.86667},{"country_id":1,"geoid":504042,"name_en":"Pushchino","lat":54.83373,"name_ru":"Пущино","id":811,"lon":37.61138},{"country_id":1,"geoid":504576,"name_en":"Protvino","lat":54.86821,"name_ru":"Протвино","id":812,"lon":37.21583},{"country_id":1,"geoid":505597,"name_en":"Pravdinskiy","lat":56.06034,"name_ru":"Правдинский","id":813,"lon":37.86266},{"country_id":1,"geoid":505824,"name_en":"Povarovo","lat":56.06667,"name_ru":"Поварово","id":814,"lon":37.05},{"country_id":1,"geoid":508101,"name_en":"Podol'sk","lat":55.42419,"name_ru":"Подольск","id":815,"lon":37.55472},{"country_id":1,"geoid":509392,"name_en":"Pirogovskiy","lat":55.97806,"name_ru":"Пироговский","id":816,"lon":37.73361},{"country_id":1,"geoid":512023,"name_en":"Pavlovskiy Posad","lat":55.78187,"name_ru":"Павловский Посад","id":817,"lon":38.65025},{"country_id":1,"geoid":513362,"name_en":"Ozherel'ye","lat":54.79197,"name_ru":"Ожерелье","id":818,"lon":38.26559},{"country_id":1,"geoid":513378,"name_en":"Ozery","lat":54.85998,"name_ru":"Озеры","id":819,"lon":38.55062},{"country_id":1,"geoid":515024,"name_en":"Orekhovo-Zuyevo","lat":55.80672,"name_ru":"Орехово-Зуево","id":820,"lon":38.96178},{"country_id":1,"geoid":515186,"name_en":"Opalikha","lat":55.82593,"name_ru":"Опалиха","id":821,"lon":37.25278},{"country_id":1,"geoid":515873,"name_en":"Oktyabr'skiy","lat":55.60806,"name_ru":"Октябрьский","id":822,"lon":37.97738},{"country_id":1,"geoid":516215,"name_en":"Odintsovo","lat":55.67798,"name_ru":"Одинцово","id":823,"lon":37.27773},{"country_id":1,"geoid":516305,"name_en":"Obukhovo","lat":55.83278,"name_ru":"Обухово","id":824,"lon":38.2725},{"country_id":1,"geoid":518337,"name_en":"Novopodrezkovo","lat":55.93972,"name_ru":"Новоподрезково","id":825,"lon":37.34417},{"country_id":1,"geoid":518346,"name_en":"Novopetrovskoye","lat":55.99278,"name_ru":"Новопетровское","id":826,"lon":36.47194},{"country_id":1,"geoid":521821,"name_en":"Nikolina Gora","lat":55.73433,"name_ru":"Николина Гора","id":827,"lon":37.04364},{"country_id":1,"geoid":522803,"name_en":"Nekrasovskiy","lat":56.09349,"name_ru":"Некрасовский","id":828,"lon":37.49934},{"country_id":1,"geoid":526651,"name_en":"Mikhnevo","lat":55.12747,"name_ru":"Михнево","id":829,"lon":37.95451},{"country_id":1,"geoid":529638,"name_en":"Mamontovka","lat":55.98083,"name_ru":"Мамонтовка","id":830,"lon":37.81972},{"country_id":1,"geoid":534174,"name_en":"Lopatinskiy","lat":55.34101,"name_ru":"Лопатинский","id":831,"lon":38.72366},{"country_id":1,"geoid":534595,"name_en":"Lobnya","lat":56.00972,"name_ru":"Лобня","id":832,"lon":37.48194},{"country_id":1,"geoid":540030,"name_en":"Kubinka","lat":55.57957,"name_ru":"Кубинка","id":833,"lon":36.70392},{"country_id":1,"geoid":541286,"name_en":"Kratovo","lat":55.59728,"name_ru":"Кратово","id":834,"lon":38.17743},{"country_id":1,"geoid":541950,"name_en":"Krasnozavodsk","lat":56.45,"name_ru":"Краснозаводск","id":835,"lon":38.21667},{"country_id":1,"geoid":542374,"name_en":"Krasnogorsk","lat":55.82036,"name_ru":"Красногорск","id":836,"lon":37.33017},{"country_id":1,"geoid":542463,"name_en":"Krasnoarmeysk","lat":56.1,"name_ru":"Красноармейск","id":837,"lon":38.13333},{"country_id":1,"geoid":542841,"name_en":"Kraskovo","lat":55.64972,"name_ru":"Красково","id":838,"lon":37.98778},{"country_id":1,"geoid":543731,"name_en":"Kotel'niki","lat":55.63546,"name_ru":"Котельники","id":839,"lon":37.8445},{"country_id":1,"geoid":551964,"name_en":"Kashira","lat":54.84444,"name_ru":"Кашира","id":840,"lon":38.16694},{"country_id":1,"geoid":463355,"name_en":"Zheleznodorozhnyy","lat":55.744,"name_ru":"Железнодорожный","id":841,"lon":38.01684},{"country_id":1,"geoid":555111,"name_en":"Ivanteyevka","lat":55.97111,"name_ru":"Ивантеевка","id":842,"lon":37.92083},{"country_id":1,"geoid":464687,"name_en":"Zaraysk","lat":54.7605,"name_ru":"Зарайск","id":843,"lon":38.87841},{"country_id":1,"geoid":464708,"name_en":"Zaprudnya","lat":56.56667,"name_ru":"Запрудня","id":844,"lon":37.43333},{"country_id":1,"geoid":560756,"name_en":"Golitsyno","lat":55.60928,"name_ru":"Голицыно","id":845,"lon":36.98212},{"country_id":1,"geoid":465632,"name_en":"Zagoryanskiy","lat":55.9325,"name_ru":"Загорянский","id":846,"lon":37.95806},{"country_id":1,"geoid":467104,"name_en":"Yershovo","lat":55.76911,"name_ru":"Ершово","id":847,"lon":36.85929},{"country_id":1,"geoid":563522,"name_en":"Elektrougli","lat":55.72445,"name_ru":"Электроугли","id":848,"lon":38.20908},{"country_id":1,"geoid":563523,"name_en":"Elektrostal'","lat":55.78959,"name_ru":"Электросталь","id":849,"lon":38.44671},{"country_id":1,"geoid":563524,"name_en":"Elektrogorsk","lat":55.88431,"name_ru":"Электрогорск","id":850,"lon":38.7864},{"country_id":1,"geoid":472433,"name_en":"Volokolamsk","lat":56.03361,"name_ru":"Волоколамск","id":851,"lon":35.96944},{"country_id":1,"geoid":566712,"name_en":"Demikhovo","lat":55.79685,"name_ru":"Демихово","id":852,"lon":38.88404},{"country_id":1,"geoid":566854,"name_en":"Dedovsk","lat":55.86861,"name_ru":"Дедовск","id":853,"lon":37.12222},{"country_id":1,"geoid":473535,"name_en":"Vinogradovo","lat":56.93333,"name_ru":"Виноградово","id":854,"lon":37.55},{"country_id":1,"geoid":473778,"name_en":"Vidnoye","lat":55.55239,"name_ru":"Видное","id":855,"lon":37.70967},{"country_id":1,"geoid":486968,"name_en":"Stupino","lat":54.90083,"name_ru":"Ступино","id":856,"lon":38.07083},{"country_id":1,"geoid":487131,"name_en":"Stromyn'","lat":56.04347,"name_ru":"Стромынь","id":857,"lon":38.48318},{"country_id":1,"geoid":492333,"name_en":"Skoropuskovskiy","lat":56.36667,"name_ru":"Скоропусковский","id":858,"lon":38.16667},{"country_id":1,"geoid":496035,"name_en":"Shakhovskaya","lat":56.03147,"name_ru":"Шаховская","id":859,"lon":35.50697},{"country_id":1,"geoid":496527,"name_en":"Serpukhov","lat":54.91578,"name_ru":"Серпухов","id":860,"lon":37.41114},{"country_id":1,"geoid":496638,"name_en":"Sergiyev Posad","lat":56.3,"name_ru":"Сергиев Посад","id":861,"lon":38.13333},{"country_id":1,"geoid":496879,"name_en":"Serebryanyye Prudy","lat":54.46923,"name_ru":"Серебряные Пруды","id":862,"lon":38.72095},{"country_id":1,"geoid":497534,"name_en":"Selyatino","lat":55.51514,"name_ru":"Селятино","id":863,"lon":36.97746},{"country_id":1,"geoid":502018,"name_en":"Reutov","lat":55.76111,"name_ru":"Реутов","id":864,"lon":37.8575},{"country_id":1,"geoid":509981,"name_en":"Petrovskaya","lat":55.55,"name_ru":"Петровская","id":865,"lon":37.78333},{"country_id":1,"geoid":512039,"name_en":"Pavlovskaya Sloboda","lat":55.81517,"name_ru":"Павловская Слобода","id":866,"lon":37.08246},{"country_id":1,"geoid":518805,"name_en":"Novoivanovskoye","lat":55.70381,"name_ru":"Новоивановское","id":867,"lon":37.3651},{"country_id":1,"geoid":520068,"name_en":"Noginsk","lat":55.86647,"name_ru":"Ногинск","id":868,"lon":38.4438},{"country_id":1,"geoid":525396,"name_en":"Monino","lat":55.84244,"name_ru":"Монино","id":869,"lon":38.19362},{"country_id":1,"geoid":535243,"name_en":"Likino-Dulevo","lat":55.7083,"name_ru":"Ликино-Дулево","id":870,"lon":38.9542},{"country_id":1,"geoid":535695,"name_en":"Lesnoy Gorodok","lat":55.63893,"name_ru":"Лесной Городок","id":871,"lon":37.20829},{"country_id":1,"geoid":535741,"name_en":"Lesnoy","lat":56.06667,"name_ru":"Лесной","id":872,"lon":37.91667},{"country_id":1,"geoid":544904,"name_en":"Korenevo","lat":55.67194,"name_ru":"Коренёво","id":873,"lon":38.00778},{"country_id":1,"geoid":545405,"name_en":"Konobeyevo","lat":55.40776,"name_ru":"Конобеево","id":874,"lon":38.66261},